CCN,Network,Facility Name,Five Star Date,Five Star,Five Star Data Availability Code,Address Line 1,Address Line 2,City,State,Zip,County/Parish,dfc_new,full_address,latitude,longitude
12306,8,CHILDRENS HOSPITAL DIALYSIS,01Jan2020-31Dec2023,,260,1600 7TH AVENUE SOUTH,,BIRMINGHAM,AL,35233,Jefferson,existing,"1600 7TH AVENUE SOUTH, BIRMINGHAM, AL 35233",33.504018,-86.805215
12500,8,FMC CAPITOL CITY,01Jan2020-31Dec2023,1.0,1,255 S JACKSON STREET,,MONTGOMERY,AL,36104,Montgomery,existing,"255 S JACKSON STREET, MONTGOMERY, AL 36104",32.374048,-86.295939
12501,8,DaVita Gadsden Dialysis,01Jan2020-31Dec2023,2.0,1,409 SOUTH FIRST STREET,,GADSDEN,AL,35901,Etowah,existing,"409 SOUTH FIRST STREET, GADSDEN, AL 35901",34.00675,-86.003132
12502,8,DaVita Tuscaloosa University Dialysis,01Jan2020-31Dec2023,1.0,1,220 15TH STREET,,TUSCALOOSA,AL,35401,Tuscaloosa,existing,"220 15TH STREET, TUSCALOOSA, AL 35401",33.19899,-87.53823
12505,8,DaVita PDI-Montgomery,01Jan2020-31Dec2023,3.0,1,1001 FOREST AVENUE,,MONTGOMERY,AL,36106,Montgomery,existing,"1001 FOREST AVENUE, MONTGOMERY, AL 36106",32.369331,-86.285969
12506,8,DaVita Dothan Dialysis,01Jan2020-31Dec2023,3.0,1,216 GRACELAND DR.,,DOTHAN,AL,36305,Houston,existing,"216 GRACELAND DR., DOTHAN, AL 36305",31.2317,-85.45266
12507,8,FMC MOBILE,01Jan2020-31Dec2023,3.0,1,2620 OLD SHELL RD,,MOBILE,AL,36607,Mobile,existing,"2620 OLD SHELL RD, MOBILE, AL 36607",30.692555,-88.102452
12508,8,DaVita Birmingham East Dialysis,01Jan2020-31Dec2023,2.0,1,1105 EAST PARK DRIVE,,BIRMINGHAM,AL,35235,Jefferson,existing,"1105 EAST PARK DRIVE, BIRMINGHAM, AL 35235",33.58754,-86.68043
12512,8,FMC SELMA,01Jan2020-31Dec2023,1.0,1,905 MEDICAL CENTER PARKWAY,,SELMA,AL,36701,Dallas,existing,"905 MEDICAL CENTER PARKWAY, SELMA, AL 36701",32.427473,-87.05277
12513,8,BMA LANGDALE,01Jan2020-31Dec2023,5.0,1,8 MEDICAL PARK,,VALLEY,AL,36854,Chambers,existing,"8 MEDICAL PARK, VALLEY, AL 36854",32.828959,-85.16881
12515,8,FMC OPELIKA,01Jan2020-31Dec2023,5.0,1,2609 VILLAGE PROFESSIONAL DR,STE 2,OPELIKA,AL,36801,Lee,existing,"2609 VILLAGE PROFESSIONAL DR, OPELIKA, AL 36801",32.64788,-85.41282
12516,8,FRESENIUS KIDNEY CARE SOUTH AVENUE,01Jan2020-31Dec2023,2.0,1,3201 3rd AVE SOUTH,,BIRMINGHAM,AL,35222,Jefferson,existing,"3201 3rd AVE SOUTH, BIRMINGHAM, AL 35222",33.517861,-86.785307
12517,8,DaVita Athens Dialysis,01Jan2020-31Dec2023,1.0,1,15953 Athens Limestone Drive,,ATHENS,AL,35613,Limestone,existing,"15953 Athens Limestone Drive, ATHENS, AL 35613",34.78607,-86.94523
12519,8,FMC SCOTTSBORO,01Jan2020-31Dec2023,3.0,1,20998 JOHN T. REID HWY,,SCOTTSBORO,AL,35768,Jackson,existing,"20998 JOHN T. REID HWY, SCOTTSBORO, AL 35768",34.634072,-86.060831
12520,8,FKC TROY,01Jan2020-31Dec2023,3.0,1,606 BOTTS AVE,,TROY,AL,36081,Pike,existing,"606 BOTTS AVE, TROY, AL 36081",31.785028,-85.948606
12521,8,DCI DOTHAN,01Jan2020-31Dec2023,2.0,1,1630 COLUMBIA HWY,,Dothan,AL,36303,Houston,existing,"1630 COLUMBIA HWY, Dothan, AL 36303",31.22062,-85.367447
12522,8,FMC HUNTSVILLE,01Jan2020-31Dec2023,4.0,1,2325 PANSY STREET,SUITE C,HUNTSVILLE,AL,35801,Madison,existing,"2325 PANSY STREET, HUNTSVILLE, AL 35801",34.714519,-86.577151
12523,8,DaVita Phenix City Dialysis Center,01Jan2020-31Dec2023,3.0,1,4391 RIVERCHASE DRIVE,,PHENIX CITY,AL,36867,Russell,existing,"4391 RIVERCHASE DRIVE, PHENIX CITY, AL 36867",32.508348,-85.006759
12524,8,FMC EAST MOBILE,01Jan2020-31Dec2023,3.0,1,1217 GOVERNMENT ST,,MOBILE,AL,36604,Mobile,existing,"1217 GOVERNMENT ST, MOBILE, AL 36604",30.682324,-88.064604
12525,8,FMC WEST MOBILE,01Jan2020-31Dec2023,3.0,1,6601 WALL STREET,SUITE A,MOBILE,AL,36695,Mobile,existing,"6601 WALL STREET, MOBILE, AL 36695",30.670122,-88.19511
12526,8,RCG PRINCETON,01Jan2020-31Dec2023,3.0,1,708 COTTON AVE SW,,BIRMINGHAM,AL,35211,Jefferson,existing,"708 COTTON AVE SW, BIRMINGHAM, AL 35211",33.497637,-86.843739
12527,8,DCI ENTERPRISE,01Jan2020-31Dec2023,5.0,1,3861 SALEM ROAD,,ENTERPRISE,AL,36330,Coffee,existing,"3861 SALEM ROAD, ENTERPRISE, AL 36330",31.361079,-85.870367
12528,8,FMC CAHABA VALLEY,01Jan2020-31Dec2023,3.0,1,120 CAHABA VALLEY PARKWAY,Suite 150,PELHAM,AL,35124,Shelby,existing,"120 CAHABA VALLEY PARKWAY, PELHAM, AL 35124",33.337632,-86.783975
12529,8,DaVita Florence Dialysis,01Jan2020-31Dec2023,3.0,1,422 EAST DR. HICKS BLVD,STE B,FLORENCE,AL,35630,Lauderdale,existing,"422 EAST DR. HICKS BLVD, FLORENCE, AL 35630",34.799209,-87.669196
12530,8,FKC E 11 Street - Anniston,01Jan2020-31Dec2023,3.0,1,522 EAST 11TH STREET,1ST FLOOR,ANNISTON,AL,36207,Calhoun,existing,"522 EAST 11TH STREET, ANNISTON, AL 36207",33.658145,-85.822176
12531,8,FMC JACKSON (TOMBIGBEE),01Jan2020-31Dec2023,3.0,1,215 WALKER SPRINGS RD,,JACKSON,AL,36545,Clarke,existing,"215 WALKER SPRINGS RD, JACKSON, AL 36545",31.55919,-87.87432
12532,8,DCI EUFAULA,01Jan2020-31Dec2023,3.0,1,123 A EAST BARBOUR STREET,,EUFAULA,AL,36027,Barbour,existing,"123 A EAST BARBOUR STREET, EUFAULA, AL 36027",31.891557,-85.140984
12533,8,DaVita Walker County Dialysis,01Jan2020-31Dec2023,2.0,1,260 6th Avenue Northwest,,JASPER,AL,35504,Walker,existing,"260 6th Avenue Northwest, JASPER, AL 35504",33.851179,-87.282072
12534,8,BESSEMER KIDNEY CENTER,01Jan2020-31Dec2023,2.0,1,975 9TH AVE SW,SUITE 500,BESSEMER,AL,35022,Jefferson,existing,"975 9TH AVE SW, BESSEMER, AL 35022",33.372797,-86.990364
12535,8,DaVita PDI-Prattville,01Jan2020-31Dec2023,4.0,1,600 Mcqueen Smith Road South,,PRATTVILLE,AL,36066,Autauga,existing,"600 Mcqueen Smith Road South, PRATTVILLE, AL 36066",32.459571,-86.418284
12536,8,FMC MONTCLAIR,01Jan2020-31Dec2023,3.0,1,7780 Ludington Lane,,BIRMINGHAM,AL,35210,Jefferson,existing,"7780 Ludington Lane, BIRMINGHAM, AL 35210",33.53156,-86.716095
12537,8,FMC PRICHARD,01Jan2020-31Dec2023,3.0,1,4016 St Stevens Road,,WHISTLER,AL,36612,Mobile,existing,"4016 St Stevens Road, WHISTLER, AL 36612",30.75641,-88.103004
12538,8,RCG ANDALUSIA,01Jan2020-31Dec2023,3.0,1,1208 WEST BYPASS,,ANDALUSIA,AL,36420,Covington,existing,"1208 WEST BYPASS, ANDALUSIA, AL 36420",31.291417,-86.503639
12540,8,FMC MONROEVILLE (WHETSTONE),01Jan2020-31Dec2023,2.0,1,676 S ALABAMA AVE,,MONROEVILLE,AL,36460,Monroe,existing,"676 S ALABAMA AVE, MONROEVILLE, AL 36460",31.516704,-87.322853
12541,8,FMC DADEVILLE,01Jan2020-31Dec2023,5.0,1,52 WATERWORKS RD,,DADEVILLE,AL,36853,Tallapoosa,existing,"52 WATERWORKS RD, DADEVILLE, AL 36853",32.837272,-85.767287
12542,8,DaVita Rainbow City Dialysis,01Jan2020-31Dec2023,,261,2800 RAINBOW DRIVE,,RAINBOW CITY,AL,35906,Etowah,existing,"2800 RAINBOW DRIVE, RAINBOW CITY, AL 35906",33.96487,-86.027209
12543,8,DaVita Demopolis Dialysis,01Jan2020-31Dec2023,1.0,1,305 South Cedar Avenue,,Demopolis,AL,36732,Marengo,existing,"305 South Cedar Avenue, Demopolis, AL 36732",32.513629,-87.83448
12544,8,DaVita Ozark Dialysis,01Jan2020-31Dec2023,3.0,1,195 BUNTING DRIVE,,OZARK,AL,36360,Dale,existing,"195 BUNTING DRIVE, OZARK, AL 36360",31.471945,-85.676605
12545,8,DaVita Tuscaloosa Dialysis,01Jan2020-31Dec2023,1.0,1,805 OLD MILL STREET,,TUSCALOOSA,AL,35401,Tuscaloosa,existing,"805 OLD MILL STREET, TUSCALOOSA, AL 35401",33.17874,-87.5478
12546,8,FMC TUSKEGEE,01Jan2020-31Dec2023,3.0,1,802 E. MARTIN LUTHER KING HWY,,TUSKEGEE,AL,36083,Macon,existing,"802 E. MARTIN LUTHER KING HWY, TUSKEGEE, AL 36083",32.427372,-85.683326
12547,8,FMC EASTERN SHORE,01Jan2020-31Dec2023,2.0,1,124 PROFESSIONAL PARK DR,,FAIRHOPE,AL,36532,Baldwin,existing,"124 PROFESSIONAL PARK DR, FAIRHOPE, AL 36532",30.5178,-87.88424
12548,8,DaVita Fayette Dialysis,01Jan2020-31Dec2023,2.0,1,2450 TEMPLE AVE N,,FAYETTE,AL,35555,Fayette,existing,"2450 TEMPLE AVE N, FAYETTE, AL 35555",33.72122,-87.81544
12550,8,DaVita Greene County Dialysis,01Jan2020-31Dec2023,2.0,1,544 HIGHWAY 43,,EUTAW,AL,35462,Greene,existing,"544 HIGHWAY 43, EUTAW, AL 35462",32.829352,-87.881982
12551,8,DaVita Sheffield Dialysis,01Jan2020-31Dec2023,3.0,1,1120 S JACKSON HWY STE 107,,SHEFFIELD,AL,35660,Colbert,existing,"1120 S JACKSON HWY STE 107, SHEFFIELD, AL 35660",34.745961,-87.702041
12552,8,FMC Azalea City,01Jan2020-31Dec2023,3.0,1,65 NORTH CATHERINE STREET,,MOBILE,AL,36604,Mobile,existing,"65 NORTH CATHERINE STREET, MOBILE, AL 36604",30.6893,-88.073715
12553,8,DaVita PDI-Elmore County,01Jan2020-31Dec2023,3.0,1,125 HOSPITAL DRIVE,,WETUMPKA,AL,36092,Elmore,existing,"125 HOSPITAL DRIVE, WETUMPKA, AL 36092",32.55196,-86.18829
12556,8,FMC Pell City,01Jan2020-31Dec2023,3.0,1,7067 VETERANS PKWY SUITE 120,,PELL CITY,AL,35125,Saint Clair,existing,"7067 VETERANS PKWY SUITE 120, PELL CITY, AL 35125",33.604239,-86.30205
12558,8,DCI DECATUR,01Jan2020-31Dec2023,1.0,1,1601 6TH AVENUE SOUTH EAST,,DECATUR,AL,35601,Morgan,existing,"1601 6TH AVENUE SOUTH EAST, DECATUR, AL 35601",34.606109,-86.984928
12559,8,FMC UNIVERSITY SOUTH ALABAMA,01Jan2020-31Dec2023,2.0,1,700 CLINIC DRIVE,,MOBILE,AL,36688,Mobile,existing,"700 CLINIC DRIVE, MOBILE, AL 36688",30.701438,-88.178335
12561,8,FKC Arab,01Jan2020-31Dec2023,4.0,1,310 South Brindlee Mountain Parkway,,Arab,AL,35016,Marshall,existing,"310 South Brindlee Mountain Parkway, Arab, AL 35016",34.312061,-86.503582
12562,8,DCI PELL CITY,01Jan2020-31Dec2023,3.0,1,62 COGSWELL DRIVE,,PELL CITY,AL,35125,Saint Clair,existing,"62 COGSWELL DRIVE, PELL CITY, AL 35125",33.587792,-86.316584
12563,8,DCI CULLMAN,01Jan2020-31Dec2023,3.0,1,1734 EVA ROAD NE,,CULLMAN,AL,35055,Cullman,existing,"1734 EVA ROAD NE, CULLMAN, AL 35055",34.195613,-86.831871
12566,8,FMC SYLACAUGA,01Jan2020-31Dec2023,3.0,1,314 WEST SPRING STREET,,SYLACAUGA,AL,35150,Talladega,existing,"314 WEST SPRING STREET, SYLACAUGA, AL 35150",33.16627,-86.256121
12568,8,FMC PARKWAY,01Jan2020-31Dec2023,3.0,1,1311 N MEMORIAL PKWY STE 100,,HUNTSVILLE,AL,35801,Madison,existing,"1311 N MEMORIAL PKWY STE 100, HUNTSVILLE, AL 35801",34.819308,-86.571064
12570,8,DaVita Northport Dialysis,01Jan2020-31Dec2023,2.0,1,2401 HOSPITAL DRIVE,,NORTHPORT,AL,35476,Tuscaloosa,existing,"2401 HOSPITAL DRIVE, NORTHPORT, AL 35476",33.23163,-87.56913
12572,8,FMC CAMELLIA,01Jan2020-31Dec2023,2.0,1,350 PAUL STABLER DRIVE,,GREENVILLE,AL,36037,Butler,existing,"350 PAUL STABLER DRIVE, GREENVILLE, AL 36037",31.85235,-86.645782
12573,8,DCI BIRMINGHAM,01Jan2020-31Dec2023,5.0,1,8713 PARKWAY EAST,,BIRMINGHAM,AL,35206,Jefferson,existing,"8713 PARKWAY EAST, BIRMINGHAM, AL 35206",33.57726,-86.717441
12575,8,RCG WALKER,01Jan2020-31Dec2023,2.0,1,3510 3RD STREET NE,,JASPER,AL,35504,Walker,existing,"3510 3RD STREET NE, JASPER, AL 35504",33.845058,-87.236843
12576,8,DCI MONTGOMERY,01Jan2020-31Dec2023,1.0,1,544 SOUTH MCDONOUGH STREET,,MONTGOMERY,AL,36104,Montgomery,existing,"544 SOUTH MCDONOUGH STREET, MONTGOMERY, AL 36104",32.37079,-86.30502
12579,8,FMC DAUPHIN ISLAND PKWY,01Jan2020-31Dec2023,3.0,1,2381 DAUPHIN ISLAND PARKWAY,,MOBILE,AL,36605,Mobile,existing,"2381 DAUPHIN ISLAND PARKWAY, MOBILE, AL 36605",30.62286,-88.08303
12580,8,FMC THOMASVILLE,01Jan2020-31Dec2023,3.0,1,30230 HWY 43,,THOMASVILLE,AL,36784,Clarke,existing,"30230 HWY 43, THOMASVILLE, AL 36784",31.881087,-87.744262
12582,8,FMC WILCOX,01Jan2020-31Dec2023,2.0,1,229 CAMDEN BYPASS,,CAMDEN,AL,36726,Wilcox,existing,"229 CAMDEN BYPASS, CAMDEN, AL 36726",32.006113,-87.297356
12585,8,DaVita Ensley Dialysis,01Jan2020-31Dec2023,3.0,1,2630 AVENUE E,,BIRMINGHAM,AL,35218,Jefferson,existing,"2630 AVENUE E, BIRMINGHAM, AL 35218",33.50726,-86.902605
12588,8,DaVita Sylacauga Dialysis,01Jan2020-31Dec2023,2.0,1,331 JAMES PAYTON BLVD,,SYLACAUGA,AL,35150,Talladega,existing,"331 JAMES PAYTON BLVD, SYLACAUGA, AL 35150",33.178202,-86.28482
12589,8,DaVita Birmingham North Dialysis,01Jan2020-31Dec2023,2.0,1,1917 32ND AVENUE NORTH,,BIRMINGHAM,AL,35207,Jefferson,existing,"1917 32ND AVENUE NORTH, BIRMINGHAM, AL 35207",33.550818,-86.828229
12590,8,DCI MOULTON,01Jan2020-31Dec2023,2.0,1,1962 MAIN STREET,,MOULTON,AL,35650,Lawrence,existing,"1962 MAIN STREET, MOULTON, AL 35650",34.497055,-87.282719
12591,8,FKC Shelby,01Jan2020-31Dec2023,3.0,1,1010 First Street North,Suite 100,Alabaster,AL,35007,Shelby,existing,"1010 First Street North, Alabaster, AL 35007",33.253808,-86.812841
12592,8,DaVita Birmingham Central Dialysis,01Jan2020-31Dec2023,3.0,1,728 RICHARD ARRINGTON JR BLVD S,,BIRMINGHAM,AL,35233,Jefferson,existing,"728 RICHARD ARRINGTON JR BLVD S, BIRMINGHAM, AL 35233",33.505593,-86.798158
12593,8,FMC ODYSSEY DIALYSIS,01Jan2020-31Dec2023,3.0,1,40 HUGHES ROAD,,MADISON,AL,35758,Madison,existing,"40 HUGHES ROAD, MADISON, AL 35758",34.689702,-86.736155
12594,8,DaVita Boaz Dialysis,01Jan2020-31Dec2023,3.0,1,16 CENTRAL HENDERSON ROAD,,BOAZ,AL,35957,Marshall,existing,"16 CENTRAL HENDERSON ROAD, BOAZ, AL 35957",34.22576,-86.163
12595,8,RCG FORT PAYNE,01Jan2020-31Dec2023,2.0,1,2202 JORDAN ROAD SW,SUITE 100,FORT PAYNE,AL,35968,DeKalb,existing,"2202 JORDAN ROAD SW, FORT PAYNE, AL 35968",34.427528,-85.762236
12596,8,FKC MONTGOMERY,01Jan2020-31Dec2023,2.0,1,3625 McGehee Place Drive North,,Montgomery,AL,36111,Montgomery,existing,"3625 McGehee Place Drive North, Montgomery, AL 36111",32.33415,-86.24614
12597,8,FMC BAY MINETTE,01Jan2020-31Dec2023,4.0,1,2505 HAND AVENUE,,BAY MINETTE,AL,36507,Baldwin,existing,"2505 HAND AVENUE, BAY MINETTE, AL 36507",30.911211,-87.788031
12598,8,DCI PHENIX CITY,01Jan2020-31Dec2023,2.0,1,1611 21st COURT,,PHENIX CITY,AL,36867,Russell,existing,"1611 21st COURT, PHENIX CITY, AL 36867",32.476151,-85.023529
12599,8,FMC PORT CITY,01Jan2020-31Dec2023,2.0,1,"201 ST. JOSEPH STREET, SUITE B",,MOBILE,AL,36602,Mobile,existing,"201 ST. JOSEPH STREET, SUITE B, MOBILE, AL 36602",30.695461,-88.043945
12600,8,DaVita Atmore Dialysis Center,01Jan2020-31Dec2023,2.0,1,807 EAST CRAIG STREET,,ATMORE,AL,36502,Escambia,existing,"807 EAST CRAIG STREET, ATMORE, AL 36502",31.017676,-87.481973
12602,8,DaVita Russellville Dialysis,01Jan2020-31Dec2023,3.0,1,14897 HWY 43,,RUSSELLVILLE,AL,35653,Franklin,existing,"14897 HWY 43, RUSSELLVILLE, AL 35653",34.50511,-87.717124
12603,8,FMC FAIRFIELD (STEEL CITY),01Jan2020-31Dec2023,3.0,1,6508 E. J. OLIVER BLVD,,FAIRFIELD,AL,35064,Jefferson,existing,"6508 E. J. OLIVER BLVD, FAIRFIELD, AL 35064",33.474187,-86.919041
12604,8,RCG CLANTON,01Jan2020-31Dec2023,3.0,1,275 HEALTH CENTER DRIVE,,CLANTON,AL,35045,Chilton,existing,"275 HEALTH CENTER DRIVE, CLANTON, AL 35045",32.856167,-86.624801
12606,8,FMC CHASE,01Jan2020-31Dec2023,1.0,1,1849 KEATS DRIVE NORTHWEST,,HUNTSVILLE,AL,35810,Madison,existing,"1849 KEATS DRIVE NORTHWEST, HUNTSVILLE, AL 35810",34.75668,-86.59775
12607,8,ROANOKE DIALYSIS CLINIC,01Jan2020-31Dec2023,3.0,1,4459 US HIGHWAY 431,,ROANOKE,AL,36274,Randolph,existing,"4459 US HIGHWAY 431, ROANOKE, AL 36274",33.165935,-85.369783
12608,8,RCG ONEONTA,01Jan2020-31Dec2023,4.0,1,"150 GILBREATH DRIVE, SUITE 1",,ONEONTA,AL,35121,Blount,existing,"150 GILBREATH DRIVE, SUITE 1, ONEONTA, AL 35121",33.929923,-86.493839
12609,8,DaVita Eufaula Dialysis,01Jan2020-31Dec2023,3.0,1,220 SOUTH ORANGE AVE,,EUFAULA,AL,36027,Barbour,existing,"220 SOUTH ORANGE AVE, EUFAULA, AL 36027",31.890093,-85.142196
12610,8,FMC MAGNOLIA,01Jan2020-31Dec2023,3.0,1,7940 Moffett Road,,SEMMES,AL,36575,Mobile,existing,"7940 Moffett Road, SEMMES, AL 36575",30.76732,-88.2287
12611,8,FMC DALLAS COUNTY,01Jan2020-31Dec2023,2.0,1,200 SOUTH PARK PL,,SELMA,AL,36701,Dallas,existing,"200 SOUTH PARK PL, SELMA, AL 36701",32.42477,-87.054218
12612,8,FMC GARDENDALE,01Jan2020-31Dec2023,3.0,1,592 FIELDSTOWN ROAD,SUITE 102,GARDENDALE,AL,35071,Jefferson,existing,"592 FIELDSTOWN ROAD, GARDENDALE, AL 35071",33.652936,-86.820747
12613,8,FMC DISCOVERY,01Jan2020-31Dec2023,2.0,1,"1131 EAGLETREE LN, STE100",,HUNTSVILLE,AL,35801,Madison,existing,"1131 EAGLETREE LN, STE100, HUNTSVILLE, AL 35801",34.697,-86.578489
12614,8,FMC VALLEY CREEK,01Jan2020-31Dec2023,2.0,1,201 LINCOLN LANE,,SELMA,AL,36701,Dallas,existing,"201 LINCOLN LANE, SELMA, AL 36701",32.433168,-87.056924
12615,8,FMC AUBURN,01Jan2020-31Dec2023,5.0,1,211 E UNIVERSITY DR,,AUBURN,AL,36832,Lee,existing,"211 E UNIVERSITY DR, AUBURN, AL 36832",32.58035,-85.49006
12616,8,LANDMARK DIALYSIS,01Jan2020-31Dec2023,2.0,1,717 STONE AVE,,TALLADEGA,AL,35160,Talladega,existing,"717 STONE AVE, TALLADEGA, AL 35160",33.43961,-86.08842
12617,8,FMC ALEXANDER CITY,01Jan2020-31Dec2023,3.0,1,3368 HWY 280 BYPASS,SUITE G-1,ALEXANDER CITY,AL,35010,Tallapoosa,existing,"3368 HWY 280 BYPASS, ALEXANDER CITY, AL 35010",32.930526,-85.969444
12618,8,RRC NORTHRIDGE,01Jan2020-31Dec2023,1.0,1,4400 WATERMELON ROAD,Suite A,NORTHPORT,AL,35473,Tuscaloosa,existing,"4400 WATERMELON ROAD, NORTHPORT, AL 35473",33.247895,-87.548962
12619,8,DaVita Northriver Home Dialysis (PD),01Jan2020-31Dec2023,3.0,1,1850 McFarland Blvd North STE B,,TUSCALOOSA,AL,35406,Tuscaloosa,existing,"1850 McFarland Blvd North STE B, TUSCALOOSA, AL 35406",33.23499,-87.5512
12620,8,North Alabama Home Dialysis,01Jan2020-31Dec2023,4.0,1,"1216 SOMERVILLE ROAD, SE",,DECATUR,AL,35601,Morgan,existing,"1216 SOMERVILLE ROAD, SE, DECATUR, AL 35601",34.58834,-86.97246
12621,8,RAI-SNOW ST-OXFORD,01Jan2020-31Dec2023,3.0,1,711 SNOW STREET,,OXFORD,AL,36203,Calhoun,existing,"711 SNOW STREET, OXFORD, AL 36203",33.615869,-85.823802
12622,8,DaVita Talladega Dialysis,01Jan2020-31Dec2023,4.0,1,726 BATTLE STREET E,SUITE A,TALLADEGA,AL,35160,Talladega,existing,"726 BATTLE STREET E, TALLADEGA, AL 35160",33.438763,-86.086208
12623,8,DaVita Center Point Dialysis,01Jan2020-31Dec2023,3.0,1,2337 1ST ST NE,,CENTER POINT,AL,35215,Jefferson,existing,"2337 1ST ST NE, CENTER POINT, AL 35215",33.648503,-86.68196
12624,8,FMC MIDFIELD DIALYSIS,01Jan2020-31Dec2023,2.0,1,613 BESSEMER SUPER HIGHWAY,,BIRMINGHAM,AL,35228,Jefferson,existing,"613 BESSEMER SUPER HIGHWAY, BIRMINGHAM, AL 35228",33.453545,-86.924175
12625,8,RAI JACKSONVILLE,01Jan2020-31Dec2023,3.0,1,"331 HENRY RD, S.W.",,JACKSONVILLE,AL,36265,Calhoun,existing,"331 HENRY RD, S.W., JACKSONVILLE, AL 36265",33.786262,-85.768332
12626,8,FMC NORTHWEST ALABAMA KIDNEY CENTER,01Jan2020-31Dec2023,5.0,1,638 TAHOE ROAD,,WINFIELD,AL,35594,Fayette,existing,"638 TAHOE ROAD, WINFIELD, AL 35594",33.932981,-87.826229
12628,8,DaVita Opelika Dialysis Center,01Jan2020-31Dec2023,3.0,1,2340 PEPPERELL PKWY,,OPELIKA,AL,36801,Lee,existing,"2340 PEPPERELL PKWY, OPELIKA, AL 36801",32.63812,-85.410007
12629,8,DaVita Renaissance Dialysis,01Jan2020-31Dec2023,3.0,1,1840 DARBY DRIVE,,FLORENCE,AL,35630,Lauderdale,existing,"1840 DARBY DRIVE, FLORENCE, AL 35630",34.842987,-87.646943
12630,8,DaVita Wiregrass Kidney Center,01Jan2020-31Dec2023,2.0,1,1450 ROSS CLARK CIRCLE,SUITE 200,DOTHAN,AL,36301,Houston,existing,"1450 ROSS CLARK CIRCLE, DOTHAN, AL 36301",31.200622,-85.37033
12631,8,DaVita Gulf Shores Dialysis Center,01Jan2020-31Dec2023,3.0,1,3947 GULF SHORES PARKWAY,STE 150,GULF SHORES,AL,36542,Baldwin,existing,"3947 GULF SHORES PARKWAY, GULF SHORES, AL 36542",30.309614,-87.684127
12632,8,DaVita Muscle Shoals Dialysis,01Jan2020-31Dec2023,3.0,1,712 STATE STREET,,MUSCLE SHOALS,AL,35661,Colbert,existing,"712 STATE STREET, MUSCLE SHOALS, AL 35661",34.74357,-87.662336
12633,8,FMC PRATTVILLE,01Jan2020-31Dec2023,2.0,1,692 COVERED BRIDGE PARKWAY,,PRATTVILLE,AL,36066,Autauga,existing,"692 COVERED BRIDGE PARKWAY, PRATTVILLE, AL 36066",32.481,-86.41532
12634,8,"BIO-MEDICAL APPLICATIONS OF ALABAMA, INC.",01Jan2020-31Dec2023,3.0,1,230 EAST FERN AVENUE,,FOLEY,AL,36535,Baldwin,existing,"230 EAST FERN AVENUE, FOLEY, AL 36535",30.42095,-87.68077
12636,8,FMC JAGUAR,01Jan2020-31Dec2023,2.0,1,575 STANTON ROAD,UNIT B,MOBILE,AL,36617,Mobile,existing,"575 STANTON ROAD, MOBILE, AL 36617",30.707289,-88.097149
12638,8,FMC HOOVER,01Jan2020-31Dec2023,3.0,1,2104 LORNA RIDGE LANE,,HOOVER,AL,35216,Jefferson,existing,"2104 LORNA RIDGE LANE, HOOVER, AL 35216",33.39193,-86.795925
12639,8,FMC MONTEVALLO,01Jan2020-31Dec2023,2.0,1,3883 HIGHWAY 25,,MONTEVALLO,AL,35115,Shelby,existing,"3883 HIGHWAY 25, MONTEVALLO, AL 35115",33.092331,-86.866959
12640,8,DaVita Pickens County Dialysis,01Jan2020-31Dec2023,1.0,1,289 WILLIAM E HILL DRIVE,SUITE A,CARROLLTON,AL,35447,Pickens,existing,"289 WILLIAM E HILL DRIVE, CARROLLTON, AL 35447",33.274396,-88.089773
12641,8,DCI EVERGREEN,01Jan2020-31Dec2023,2.0,1,822 WILD AVENUE,,EVERGREEN,AL,36401,Conecuh,existing,"822 WILD AVENUE, EVERGREEN, AL 36401",31.448344,-86.96005
12642,8,DaVita Enterprise Dialysis,01Jan2020-31Dec2023,3.0,1,6002 BOLL WEEVIL CIRCLE,,ENTERPRISE,AL,36330,Coffee,existing,"6002 BOLL WEEVIL CIRCLE, ENTERPRISE, AL 36330",31.29087,-85.8479
12643,8,ENDEAVOR DIALYSIS,01Jan2020-31Dec2023,4.0,1,1675 SPARKMAN DRIVE,,HUNTSVILLE,AL,35816,Madison,existing,"1675 SPARKMAN DRIVE, HUNTSVILLE, AL 35816",34.744162,-86.647192
12644,8,DaVita Jewel Dialysis,01Jan2020-31Dec2023,2.0,1,514 W. TOWN PLAZA,,BESSEMER,AL,35020,Jefferson,existing,"514 W. TOWN PLAZA, BESSEMER, AL 35020",33.390393,-86.976398
12645,8,DaVita Magic City Dialysis,01Jan2020-31Dec2023,2.0,1,300 22ND ST. S,,BIRMINGHAM,AL,35233,Jefferson,existing,"300 22ND ST. S, BIRMINGHAM, AL 35233",33.5109,-86.80002
12646,8,DaVita Steel City Dialysis,01Jan2020-31Dec2023,2.0,1,1809 AVENUE H,,BIRMINGHAM,AL,35218,Jefferson,existing,"1809 AVENUE H, BIRMINGHAM, AL 35218",33.511634,-86.893262
12647,8,DaVita Crown Dialysis,01Jan2020-31Dec2023,3.0,1,3007 27TH STREET NORTH,,BIRMINGHAM,AL,35207,Jefferson,existing,"3007 27TH STREET NORTH, BIRMINGHAM, AL 35207",33.552955,-86.816528
12648,8,FKC Gadsden,01Jan2020-31Dec2023,2.0,1,800 GOODYEAR AVENUE,,GADSDEN,AL,35903,Etowah,existing,"800 GOODYEAR AVENUE, GADSDEN, AL 35903",34.007696,-85.969818
12649,8,FKC Union Springs,01Jan2020-31Dec2023,3.0,1,112 W CONECUH AVE,,UNION SPRINGS,AL,36089,Bullock,existing,"112 W CONECUH AVE, UNION SPRINGS, AL 36089",32.145859,-85.715703
12650,8,DaVita Limestone County Dialysis,01Jan2020-31Dec2023,3.0,1,16236 LUCAS FERRY ROAD,,ATHENS,AL,35611,Limestone,existing,"16236 LUCAS FERRY ROAD, ATHENS, AL 35611",34.794479,-87.000535
12651,8,FMC FORESTDALE,01Jan2020-31Dec2023,3.0,1,1004 FORESTDALE BLVD,,BIRMINGHAM,AL,35214,Jefferson,existing,"1004 FORESTDALE BLVD, BIRMINGHAM, AL 35214",33.553761,-86.886927
12652,8,DaVita Leeds Dialysis,01Jan2020-31Dec2023,2.0,1,1650 MAXEY DRIVE,,LEEDS,AL,35094,Jefferson,existing,"1650 MAXEY DRIVE, LEEDS, AL 35094",33.55794,-86.523056
12653,8,FRESENIUS KIDNEY CARE PHENIX CITY,01Jan2020-31Dec2023,2.0,1,5009 RIVERCHASE DR STE 300,,PHENIX CITY,AL,36867,Russell,existing,"5009 RIVERCHASE DR STE 300, PHENIX CITY, AL 36867",32.517285,-85.016998
12654,8,FMC OF TAYLOR ROAD,01Jan2020-31Dec2023,3.0,1,100 MITYLENE PARK LN,,MONTGOMERY,AL,36117,Montgomery,existing,"100 MITYLENE PARK LN, MONTGOMERY, AL 36117",32.380807,-86.176191
12656,8,DCI MITYLENE PARK,01Jan2020-31Dec2023,2.0,1,29 MITYLENE PARK LANE,,MONTGOMERY,AL,36117,Montgomery,existing,"29 MITYLENE PARK LANE, MONTGOMERY, AL 36117",32.381525,-86.175848
12657,8,FMC BIRMINGHAM HOME,01Jan2020-31Dec2023,5.0,1,35 WEST LAKESHORE DRIVE,SUITE 105,BIRMINGHAM,AL,35209,Jefferson,existing,"35 WEST LAKESHORE DRIVE, BIRMINGHAM, AL 35209",33.450571,-86.812804
12659,8,FMC OF EAST JEFFERSON,01Jan2020-31Dec2023,2.0,1,9540 PARKWAY E,,BIRMINGHAM,AL,35215,Jefferson,existing,"9540 PARKWAY E, BIRMINGHAM, AL 35215",33.59695,-86.694571
12660,8,FKC Attalla,01Jan2020-31Dec2023,3.0,1,801 GILBERT FERRY RD SE,,ATTALLA,AL,35954,Etowah,existing,"801 GILBERT FERRY RD SE, ATTALLA, AL 35954",33.996407,-86.096614
12662,8,FMC MONTGOMERY HOME SERVICES,01Jan2020-31Dec2023,5.0,1,114 MITYLENE PARK LANE,,MONTGOMERY,AL,36117,Montgomery,existing,"114 MITYLENE PARK LANE, MONTGOMERY, AL 36117",32.380728,-86.175571
12663,8,DaVita Perry County Dialysis,01Jan2020-31Dec2023,4.0,1,611 EAST LAFAYETTE STREET,,MARION,AL,36756,Perry,existing,"611 EAST LAFAYETTE STREET, MARION, AL 36756",32.631676,-87.30523
12664,8,FMC SOUTH MOBILE,01Jan2020-31Dec2023,3.0,1,12401 SKOPELOS RD,,GRAND BAY,AL,36541,Mobile,existing,"12401 SKOPELOS RD, GRAND BAY, AL 36541",30.498341,-88.336213
12665,8,DaVita Brewton Dialysis,01Jan2020-31Dec2023,3.0,1,1023 DOUGLAS AVENUE,SUITE 300,BREWTON,AL,36426,Escambia,existing,"1023 DOUGLAS AVENUE, BREWTON, AL 36426",31.121878,-87.069265
12666,8,DaVita Anniston Dialysis,01Jan2020-31Dec2023,2.0,1,1612 NOBLE STREET,,ANNISTON,AL,36201,Calhoun,existing,"1612 NOBLE STREET, ANNISTON, AL 36201",33.665492,-85.830261
12667,8,FMC HOME THERAPY SERVICES OF BALDWIN COUNTY,01Jan2020-31Dec2023,4.0,1,917 B PLANTATION BLVD,,FAIRHOPE,AL,36532,Baldwin,existing,"917 B PLANTATION BLVD, FAIRHOPE, AL 36532",30.526119,-87.883367
12669,8,DaVita Monarch Dialysis,01Jan2020-31Dec2023,2.0,1,2958 DORCHESTER DRIVE,,MONTGOMERY,AL,36116,Montgomery,existing,"2958 DORCHESTER DRIVE, MONTGOMERY, AL 36116",32.32571,-86.260692
12670,8,DaVita Red Mountain HT at Home,01Jan2020-31Dec2023,3.0,1,300-B 22nd Street South,,BIRMINGHAM,AL,35233,Jefferson,existing,"300-B 22nd Street South, BIRMINGHAM, AL 35233",33.503019,-86.792892
12671,8,FMC Huntsville Home,01Jan2020-31Dec2023,4.0,1,2325 Pansy Street,,HUNTSVILLE,AL,35801,Madison,existing,"2325 Pansy Street, HUNTSVILLE, AL 35801",34.714519,-86.577151
12672,8,FMC West Madison,01Jan2020-31Dec2023,3.0,1,29569 Huntsville Browns Ferry Rd,,MADISON,AL,35756,Limestone,existing,"29569 Huntsville Browns Ferry Rd, MADISON, AL 35756",34.72956,-86.79552
12673,8,DaVita Home Options of Dothan (PD),01Jan2020-31Dec2023,,260,1763 E Main Street,,DOTHAN,AL,36301,Houston,existing,"1763 E Main Street, DOTHAN, AL 36301",31.21917,-85.365125
12676,8,DaVita Greystone Dialysis,01Jan2020-31Dec2023,3.0,1,"5406 Highway 280, Suite D107",,BIRMINGHAM,AL,35242,Shelby,existing,"5406 Highway 280, Suite D107, BIRMINGHAM, AL 35242",33.41748,-86.67088
12678,8,FMC McCalla,01Jan2020-31Dec2023,3.0,1,4748 Bell Hill Road,,BESSEMER,AL,35022,Jefferson,existing,"4748 Bell Hill Road, BESSEMER, AL 35022",33.32932,-86.99542
12679,8,DaVita White Bluff Dialysis,01Jan2020-31Dec2023,3.0,1,"505 US Highway 80 W, Suite F",,DEMOPOLIS,AL,36732,Marengo,existing,"505 US Highway 80 W, Suite F, DEMOPOLIS, AL 36732",32.498701,-87.842384
12680,8,FMC TALLASSEE,01Jan2020-31Dec2023,3.0,1,1012 FRIENDSHIP ROAD,,TALLASSEE,AL,36078,Elmore,existing,"1012 FRIENDSHIP ROAD, TALLASSEE, AL 36078",32.536227,-85.915424
12681,8,FMC Tranquility,01Jan2020-31Dec2023,3.0,1,11839 Highway 231-431 North,,MERIDIANVILLE,AL,35759,Madison,existing,"11839 Highway 231-431 North, MERIDIANVILLE, AL 35759",34.858352,-86.572052
12684,8,FMC Albertville,01Jan2020-31Dec2023,2.0,1,173 BUSINESS PARK DR,,ALBERTVILLE,AL,35951,Marshall,existing,"173 BUSINESS PARK DR, ALBERTVILLE, AL 35951",34.2765,-86.201088
12685,8,DaVita Model City HT at Home Dialysis,01Jan2020-31Dec2023,,260,1724 LEIGHTON AVE,,ANNISTON,AL,36207,Calhoun,existing,"1724 LEIGHTON AVE, ANNISTON, AL 36207",33.66731,-85.82535
12686,8,FMC Anniston Home Therapy,01Jan2020-31Dec2023,1.0,1,"2017 Quintard Avenue, Suite A",,ANNISTON,AL,36201,Calhoun,existing,"2017 Quintard Avenue, Suite A, ANNISTON, AL 36201",33.671058,-85.826381
12687,8,FMC BIRMINGHAM METRO,01Jan2020-31Dec2023,3.0,1,"2024 4th AVE SOUTH, SUITE 100",,BIRMINGHAM,AL,35233,Jefferson,existing,"2024 4th AVE SOUTH, SUITE 100, BIRMINGHAM, AL 35233",33.509671,-86.801661
12688,8,FMC TRUSSVILLE,01Jan2020-31Dec2023,4.0,1,3671 ROOSEVELT BLVD,,BIRMINGHAM,AL,35235,Jefferson,existing,"3671 ROOSEVELT BLVD, BIRMINGHAM, AL 35235",33.609604,-86.635336
12692,8,FRESENIUS MEDICAL CARE DECATUR,01Jan2020-31Dec2023,3.0,1,2834 SPRING AVENUE SW,,DECATUR,AL,35603,Morgan,existing,"2834 SPRING AVENUE SW, DECATUR, AL 35603",34.553893,-86.99966
12693,8,DaVita Springs Dialysis,01Jan2020-31Dec2023,2.0,1,218 MAIN STREET,SUITE 114 & 118,TRUSSVILLE,AL,35173,Jefferson,existing,"218 MAIN STREET, TRUSSVILLE, AL 35173",33.619738,-86.609362
12695,8,FMC ROCKET CITY,01Jan2020-31Dec2023,2.0,1,8000 CHARLOTTE DRIVE SW,,HUNTSVILLE,AL,35802,Madison,existing,"8000 CHARLOTTE DRIVE SW, HUNTSVILLE, AL 35802",34.661333,-86.56908
12696,8,FRESENIUS KIDNEY CARE SARALAND,01Jan2020-31Dec2023,3.0,1,107 SARALAND LOOP,,SARALAND,AL,36571,Mobile,existing,"107 SARALAND LOOP, SARALAND, AL 36571",30.824222,-88.07274
12697,8,DaVita Barbour County Dialysis,01Jan2020-31Dec2023,3.0,1,1218 S EUFAULA AVE,,EUFAULA,AL,36027,Barbour,existing,"1218 S EUFAULA AVE, EUFAULA, AL 36027",31.877164,-85.152783
12699,8,"Dialysis Services of Decatur, LLC",01Jan2020-31Dec2023,2.0,1,2705 Highway 31 South,,DECATUR,AL,35603,Morgan,existing,"2705 Highway 31 South, DECATUR, AL 35603",34.55565,-86.97511
12700,8,DaVita Crimson Dialysis,01Jan2020-31Dec2023,1.0,1,6521 Hwy 69 S,Ste O,TUSCALOOSA,AL,35405,Tuscaloosa,existing,"6521 Hwy 69 S, TUSCALOOSA, AL 35405",33.14871,-87.543754
12701,8,DaVita Majestic Dialysis,01Jan2020-31Dec2023,2.0,1,1510 Eastern Boulevard,,MONTGOMERY,AL,36117,Montgomery,existing,"1510 Eastern Boulevard, MONTGOMERY, AL 36117",32.35727,-86.21751
12702,8,Cherokee Community Dialysis,01Jan2020-31Dec2023,1.0,1,485 Northwood Drive,,CENTRE,AL,35960,Cherokee,existing,"485 Northwood Drive, CENTRE, AL 35960",34.16319,-85.64854
12703,8,DCI South Cullman,01Jan2020-31Dec2023,3.0,1,208 BROADWAY DR SW,,Cullman,AL,35055,Cullman,existing,"208 BROADWAY DR SW, Cullman, AL 35055",34.153628,-86.836101
12704,8,PRATTVILLE COMMUNITY DIALYSIS,01Jan2020-31Dec2023,1.0,1,1815 GLYNWOOD DRIVE,,PRATTVILLE,AL,36066,Autauga,existing,"1815 GLYNWOOD DRIVE, PRATTVILLE, AL 36066",32.461724,-86.422054
12706,8,FKC Oak Mountain,01Jan2020-31Dec2023,4.0,1,105 Inverness Cors,,BIRMINGHAM,AL,35242,Shelby,existing,"105 Inverness Cors, BIRMINGHAM, AL 35242",33.418317,-86.69214
12707,8,Sapphire Community Dialysis,01Jan2020-31Dec2023,1.0,1,8149 DECKER LN,,MONTGOMERY,AL,36117,Montgomery,existing,"8149 DECKER LN, MONTGOMERY, AL 36117",32.377432,-86.155241
12708,8,FKC Cullman,01Jan2020-31Dec2023,1.0,1,1850 PARKLAND DR NE,,CULLMAN,AL,35058,Cullman,existing,"1850 PARKLAND DR NE, CULLMAN, AL 35058",34.201275,-86.801199
12709,8,PCD Montgomery Community,01Jan2020-31Dec2023,1.0,1,2201 E SOUTH BLVD,,MONTGOMERY,AL,36116,Montgomery,new,"2201 E SOUTH BLVD, MONTGOMERY, AL 36116",32.327781,-86.273314
12710,8,FKC Hope Hull,01Jan2020-31Dec2023,3.0,1,40 WASDEN RD,,HOPE HULL,AL,36043,Montgomery,new,"40 WASDEN RD, HOPE HULL, AL 36043",32.270532,-86.357292
12711,8,FKC USA Midtown,01Jan2020-31Dec2023,3.0,1,2011 SPRING HILL AVE,,Mobile,AL,36607,Mobile,new,"2011 SPRING HILL AVE, Mobile, AL 36607",30.69097,-88.088493
12712,8,FKC Florence,01Jan2020-31Dec2023,4.0,1,131 COX CREEK PKWY S,,Florence,AL,35630,Lauderdale,new,"131 COX CREEK PKWY S, Florence, AL 35630",34.826363,-87.627254
12714,8,FKC Central Mobile,01Jan2020-31Dec2023,5.0,1,664 S UNIVERSITY BLVD,,Mobile,AL,36609,Mobile,new,"664 S UNIVERSITY BLVD, Mobile, AL 36609",30.652561,-88.161684
12716,8,DaVita Imperial Home Dialysis,01Jan2020-31Dec2023,2.0,1,5406 HWY 280 STE C100,,Birmingham,AL,35242,Shelby,new,"5406 HWY 280 STE C100, Birmingham, AL 35242",33.41748,-86.67088
12717,8,PCD Auburn,01Jan2020-31Dec2023,,260,1562 Professional Way,,Auburn,AL,36830,Lee,new,"1562 Professional Way, Auburn, AL 36830",32.63118,-85.44851
12718,8,FKC Foothills Dialysis,01Jan2020-31Dec2023,1.0,1,914 Dr Edward Hillard Dr,,Tuscaloosa,AL,35401,Tuscaloosa,new,"914 Dr Edward Hillard Dr, Tuscaloosa, AL 35401",33.205852,-87.530533
12719,8,FMC Mobile Transitional Care and Home Therapies,01Jan2020-31Dec2023,3.0,1,3250 Airport Blvd Ste C,,Mobile,AL,36606,Mobile,new,"3250 Airport Blvd Ste C, Mobile, AL 36606",30.679489,-88.126428
12720,8,FKC Narrow Lane,01Jan2020-31Dec2023,,260,2010 E South Blvd,,Montgomery,AL,36116,Montgomery,new,"2010 E South Blvd, Montgomery, AL 36116",32.32559,-86.28116
12721,8,DaVita Marshall County Home Training,01Jan2020-31Dec2023,,260,777 US Highway 431,,Boaz,AL,35957,Marshall,new,"777 US Highway 431, Boaz, AL 35957",34.197862,-86.1507
12722,8,Vaughan Kidney Care,01Jan2020-31Dec2023,,258,1360 E. Highland Ave,,Selma,AL,36703,Dallas,new,"1360 E. Highland Ave, Selma, AL 36703",32.431286,-87.016375
12723,8,DaVita Chace Lake Dialysis,01Jan2020-31Dec2023,,258,"1837 MONTGOMERY HWY, STE 109",,Hoover,AL,35244,Jefferson,new,"1837 MONTGOMERY HWY, STE 109, Hoover, AL 35244",33.37007,-86.79695
12725,8,Fresenius Kidney Care Madison Home,01Jan2020-31Dec2023,,258,1896 SLAUGHTER RD,,Madison,AL,35758,Madison,new,"1896 SLAUGHTER RD, Madison, AL 35758",34.75313,-86.71494
22500,16,ALASKA DIALYSIS - Laurel Street,01Jan2020-31Dec2023,3.0,1,3950 LAUREL STREET,,ANCHORAGE,AK,99508,Anchorage,existing,"3950 LAUREL STREET, ANCHORAGE, AK 99508",61.18494,-149.834845
22502,16,FRESENIUS MEDICAL CARE FAIRBANKS,01Jan2020-31Dec2023,3.0,1,1863 AIRPORT WAY,,FAIRBANKS,AK,99701,Fairbanks North Star,existing,"1863 AIRPORT WAY, FAIRBANKS, AK 99701",64.83496,-147.75647
22503,16,RENAL CARE GROUP WASILLA,01Jan2020-31Dec2023,3.0,1,3787 E MERIDIAN LOOP,,WASILLA,AK,99654,Matanuska-Susitna,existing,"3787 E MERIDIAN LOOP, WASILLA, AK 99654",61.588901,-149.355661
22504,16,REIFENSTEIN DIALYSIS CENTER,01Jan2020-31Dec2023,4.0,1,9109 MENDENHALL MALL RD SUITE #6,,JUNEAU,AK,99801,Juneau,existing,"9109 MENDENHALL MALL RD SUITE #6, JUNEAU, AK 99801",58.371449,-134.591663
22506,16,LIBERTY DIALYSIS - ALASKA LLC,01Jan2020-31Dec2023,5.0,1,901 EAST DIMOND BOULEVARD SUITE G,,ANCHORAGE,AK,99515,Anchorage,existing,"901 EAST DIMOND BOULEVARD SUITE G, ANCHORAGE, AK 99515",61.145725,-149.865995
22508,16,FRESENIUS MEDICAL CARE SOLDOTNA,01Jan2020-31Dec2023,5.0,1,289 N FIREWOOD LANE STE A,,SOLDOTNA,AK,99669,Kenai Peninsula,existing,"289 N FIREWOOD LANE STE A, SOLDOTNA, AK 99669",60.487234,-151.059307
22509,16,DENALI DIALYSIS CENTER,01Jan2020-31Dec2023,4.0,1,360 BONIFACE PKWY Suite A11,,ANCHORAGE,AK,99504,Anchorage,existing,"360 BONIFACE PKWY Suite A11, ANCHORAGE, AK 99504",61.220939,-149.779231
22510,16,TUDOR DIALYSIS,01Jan2020-31Dec2023,2.0,1,2735 E TUDOR RD,,ANCHORAGE,AK,99507,Anchorage,existing,"2735 E TUDOR RD, ANCHORAGE, AK 99507",61.18136,-149.82954
32302,15,Valleywise Comprehensive Health Center- Phoenix Outpatient Dialysis Unit.,01Jan2020-31Dec2023,3.0,1,2525 E ROOSEVELT ST,,PHOENIX,AZ,85008,Maricopa,existing,"2525 E ROOSEVELT ST, PHOENIX, AZ 85008",33.457703,-112.028284
32314,15,032314 PHOENIX CHILDRENS HOSPITAL- DIALYSIS CENTER,01Jan2020-31Dec2023,,260,1920 E CAMBRIDGE RD STE 102,,PHOENIX,AZ,85016,Maricopa,existing,"1920 E CAMBRIDGE RD STE 102, PHOENIX, AZ 85016",33.509247,-112.030146
32315,15,032315 GILA RIVER DIALYSIS EAST,01Jan2020-31Dec2023,4.0,1,565 W SEED FARM RD,,SACATON,AZ,85147,Pinal,existing,"565 W SEED FARM RD, SACATON, AZ 85147",33.074128,-111.759387
32316,15,032316 Banner University Medical Center Pediatric Outpatient DIALYSIS UNIT,01Jan2020-31Dec2023,,260,PO BOX 245148,,TUCSON,AZ,85724,Pima,existing,"PO BOX 245148, TUCSON, AZ 85724",32.740818,-114.481089
32500,15,DaVita Tucson West Dialysis,01Jan2020-31Dec2023,3.0,1,1780 W ANKLAM RD,,TUCSON,AZ,85745,Pima,existing,"1780 W ANKLAM RD, TUCSON, AZ 85745",32.22631,-111.004202
32501,15,DaVita Tucson East Dialysis,01Jan2020-31Dec2023,2.0,1,6420 E BROADWAY BLVD STE C300,,TUCSON,AZ,85710,Pima,existing,"6420 E BROADWAY BLVD STE C300, TUCSON, AZ 85710",32.219225,-110.85536
32502,15,DaVita Yuma Dialysis,01Jan2020-31Dec2023,2.0,1,2130 W 24TH ST,,YUMA,AZ,85364,Yuma,existing,"2130 W 24TH ST, YUMA, AZ 85364",32.685429,-114.645594
32503,15,032503 PHOENIX ARTIFICIAL KIDNEY CENTER (FMC),01Jan2020-31Dec2023,3.0,1,13090 N 94TH DR STE 100,,PEORIA,AZ,85381,Maricopa,existing,"13090 N 94TH DR STE 100, PEORIA, AZ 85381",33.60228,-112.263335
32506,15,DaVita Tuba City Dialysis,01Jan2020-31Dec2023,2.0,1,500 Edgewater Drive,PO Box 2910,TUBA CITY,AZ,86045,Coconino,existing,"500 Edgewater Drive, TUBA CITY, AZ 86045",36.129767,-111.235029
32508,15,032508 SOUTH PHOENIX DIALYSIS SERVICES (FMC),01Jan2020-31Dec2023,3.0,1,1021 S 7TH AVE STE 108,,PHOENIX,AZ,85007,Maricopa,existing,"1021 S 7TH AVE STE 108, PHOENIX, AZ 85007",33.437315,-112.082044
32509,15,032509 EAST VALLEY DIALYSIS (FMC),01Jan2020-31Dec2023,2.0,1,135 S POWER RD STE 103,,MESA,AZ,85206,Maricopa,existing,"135 S POWER RD STE 103, MESA, AZ 85206",33.412945,-111.682987
32513,15,DaVita Sells Dialysis,01Jan2020-31Dec2023,3.0,1,HWY 86 - MP 113,PO BOX 3030,SELLS,AZ,85634,Pima,existing,"HWY 86 - MP 113, SELLS, AZ 85634",32.036471,-111.535378
32514,15,032514 DESERT DIALYSIS CENTER (DCI),01Jan2020-31Dec2023,3.0,1,2022 E PRINCE RD,,TUCSON,AZ,85719,Pima,existing,"2022 E PRINCE RD, TUCSON, AZ 85719",32.27157,-110.940924
32516,15,032516 CHANDLER DIALYSIS (FMC),01Jan2020-31Dec2023,1.0,1,912 W CHANDLER BLVD BLDG A-D,,CHANDLER,AZ,85225,Maricopa,existing,"912 W CHANDLER BLVD BLDG A-D, CHANDLER, AZ 85225",33.307475,-111.857816
32517,15,032517 CENTRAL PHX DIALYSIS (FMC),01Jan2020-31Dec2023,2.0,1,3421 N 7TH AVE,,PHOENIX,AZ,85013,Maricopa,existing,"3421 N 7TH AVE, PHOENIX, AZ 85013",33.488802,-112.082476
32518,15,DaVita Chinle Dialysis,01Jan2020-31Dec2023,2.0,1,US HWY 191,PO BOX 879,CHINLE,AZ,86503,Apache,existing,"US HWY 191, CHINLE, AZ 86503",36.164186,-109.584574
32520,15,DaVita Sierra Vista Dialysis,01Jan2020-31Dec2023,2.0,1,"629 N HIGHWAY 90 BYP, STE 6",,SIERRA VISTA,AZ,85635,Cochise,existing,"629 N HIGHWAY 90 BYP, STE 6, SIERRA VISTA, AZ 85635",31.561095,-110.254113
32521,15,032521 DIALYSIS CENTER OF GLENDALE (FMC),01Jan2020-31Dec2023,3.0,1,5957 W NORTHERN AVE STE 108,,GLENDALE,AZ,85301,Maricopa,existing,"5957 W NORTHERN AVE STE 108, GLENDALE, AZ 85301",33.552667,-112.189711
32522,15,032522 PARKER DIALYSIS CENTER (FMC),01Jan2020-31Dec2023,2.0,1,AGENCY ROAD BLDG 173,Rural Rt 1/Agency Road,PARKER,AZ,85344,La Paz,existing,"AGENCY ROAD BLDG 173, PARKER, AZ 85344",34.147618,-114.295639
32523,15,DaVita Prescott Dialysis,01Jan2020-31Dec2023,4.0,1,980 WILLOW CREEK RD STE 101,,PRESCOTT,AZ,86301,Yavapai,existing,"980 WILLOW CREEK RD STE 101, PRESCOTT, AZ 86301",34.559363,-112.482646
32524,15,032524 FLAGSTAFF DIALYSIS CENTER (FMC),01Jan2020-31Dec2023,3.0,1,"2201 N VICKEY STREET, STE 120",,FLAGSTAFF,AZ,86004,Coconino,existing,"2201 N VICKEY STREET, STE 120, FLAGSTAFF, AZ 86004",35.207452,-111.606422
32525,15,DaVita Desert Mountain Dialysis Center,01Jan2020-31Dec2023,1.0,1,9220 E MOUNTAIN VIEW RD STE 105,,SCOTTSDALE,AZ,85258,Maricopa,existing,"9220 E MOUNTAIN VIEW RD STE 105, SCOTTSDALE, AZ 85258",33.576505,-111.879911
32526,15,032526 USRC SOUTHWEST MESA,01Jan2020-31Dec2023,1.0,1,1457 W SOUTHERN AVE STE 19,,MESA,AZ,85202,Maricopa,existing,"1457 W SOUTHERN AVE STE 19, MESA, AZ 85202",33.392563,-111.862349
32528,15,032528 THUNDERBIRD DIALYSIS (FMC),01Jan2020-31Dec2023,2.0,1,5750 W THUNDERBIRD RD BLDG G #750,,GLENDALE,AZ,85306,Maricopa,existing,"5750 W THUNDERBIRD RD BLDG G #750, GLENDALE, AZ 85306",33.612693,-112.181416
32530,15,032530 DESERT VALLEY DIALYSIS (FMC),01Jan2020-31Dec2023,2.0,1,3815 E. BELL ROAD STE. 1100,,PHOENIX,AZ,85032,Maricopa,existing,"3815 E. BELL ROAD STE. 1100, PHOENIX, AZ 85032",33.638596,-111.998985
32533,15,032533 GLOBE DIALYSIS (FMC),01Jan2020-31Dec2023,2.0,1,2250 HIGHWAY 60 STE O-2,,MIAMI,AZ,85539,Gila,existing,"2250 HIGHWAY 60 STE O-2, MIAMI, AZ 85539",33.415873,-110.826403
32536,15,032536 WINSLOW DIALYSIS CENTER (FMC),01Jan2020-31Dec2023,2.0,1,721 MIKE'S PIKE STREET,,WINSLOW,AZ,86047,Navajo,existing,"721 MIKE'S PIKE STREET, WINSLOW, AZ 86047",35.040308,-110.701555
32537,15,032537 ESTRELLA DIALYSIS CENTER (FMC),01Jan2020-31Dec2023,3.0,1,5546 W ROOSEVELT ST STE 1,,PHOENIX,AZ,85043,Maricopa,existing,"5546 W ROOSEVELT ST STE 1, PHOENIX, AZ 85043",33.459185,-112.180097
32539,15,032539 MESA DIALYSIS CENTER (FMC),01Jan2020-31Dec2023,1.0,1,1525 N GILBERT RD STE 121,,GILBERT,AZ,85234,Maricopa,existing,"1525 N GILBERT RD STE 121, GILBERT, AZ 85234",33.377653,-111.787131
32540,15,032540 FRESENIUS KIDNEY CARE WESTERN SKIES,01Jan2020-31Dec2023,3.0,1,1041 N ARIZOLA RD,,CASA GRANDE,AZ,85122,Pinal,existing,"1041 N ARIZOLA RD, CASA GRANDE, AZ 85122",32.883699,-111.714661
32541,15,032541 TEMPE DIALYSIS (FMC),01Jan2020-31Dec2023,2.0,1,1449 W SOUTHERN AVE,,TEMPE,AZ,85282,Maricopa,existing,"1449 W SOUTHERN AVE, TEMPE, AZ 85282",33.392392,-111.963102
32542,15,032542 ARCADIA DIALYSIS CENTER (FMC),01Jan2020-31Dec2023,3.0,1,4021 N. 30th Street,,PHOENIX,AZ,85016,Maricopa,existing,"4021 N. 30th Street, PHOENIX, AZ 85016",33.494646,-112.016594
32543,15,DaVita Nogales Dialysis,01Jan2020-31Dec2023,3.0,1,1605 N. Industrial Park Dr. STE H,,NOGALES,AZ,85621,Santa Cruz,existing,"1605 N. Industrial Park Dr. STE H, NOGALES, AZ 85621",31.361443,-110.948292
32544,15,032544 LAKE HAVASU DIALYSIS (FMC),01Jan2020-31Dec2023,4.0,1,2145 Mesquite Ave,,LAKE HAVASU CITY,AZ,86403,Mohave,existing,"2145 Mesquite Ave, LAKE HAVASU CITY, AZ 86403",34.477167,-114.326764
32545,15,032545 SOUTH MOUNTAIN DIALYSIS CENTER (FMC),01Jan2020-31Dec2023,2.0,1,26 E BASELINE STE 142,,PHOENIX,AZ,85042,Maricopa,existing,"26 E BASELINE STE 142, PHOENIX, AZ 85042",33.378664,-112.07188
32546,15,032546 SUN CITY WEST DIALYSIS (FMC),01Jan2020-31Dec2023,3.0,1,12213 W BELL ROAD STE 110,,SURPRISE,AZ,85374,Maricopa,existing,"12213 W BELL ROAD STE 110, SURPRISE, AZ 85374",33.63817,-112.323531
32549,15,032549 SAFFORD DIALYSIS (FMC),01Jan2020-31Dec2023,3.0,1,1250 S 20TH AVE,,SAFFORD,AZ,85546,Graham,existing,"1250 S 20TH AVE, SAFFORD, AZ 85546",32.825558,-109.733405
32550,15,032550 NORTH PHOENIX DIALYSIS (FMC),01Jan2020-31Dec2023,3.0,1,1957 W DUNLAP AVE STE 6C,,PHOENIX,AZ,85021,Maricopa,existing,"1957 W DUNLAP AVE STE 6C, PHOENIX, AZ 85021",33.56684,-112.10343
32551,15,032551 USRC MESA DIALYSIS,01Jan2020-31Dec2023,1.0,1,1337 S GILBERT RD STE 109,,MESA,AZ,85204,Maricopa,existing,"1337 S GILBERT RD STE 109, MESA, AZ 85204",33.39091,-111.78699
32553,15,DaVita Papago Dialysis Center,01Jan2020-31Dec2023,3.0,1,5115 East Thomas Rd,STE 115,PHOENIX,AZ,85018,Maricopa,existing,"5115 East Thomas Rd, PHOENIX, AZ 85018",33.479493,-111.970183
32556,15,DaVita South Yuma Dialysis,01Jan2020-31Dec2023,2.0,1,7179 E 31ST PL,,YUMA,AZ,85365,Yuma,existing,"7179 E 31ST PL, YUMA, AZ 85365",32.67116,-114.51008
32558,15,032558 BULLHEAD CITY DIALYSIS (FMC),01Jan2020-31Dec2023,3.0,1,2650 MIRACLE MILE,,BULLHEAD CITY,AZ,86442,Mohave,existing,"2650 MIRACLE MILE, BULLHEAD CITY, AZ 86442",35.09014,-114.595845
32559,15,DaVita Kayenta Dialysis,01Jan2020-31Dec2023,3.0,1,HWY 163,BOX 217,KAYENTA,AZ,86033,Navajo,existing,"HWY 163, KAYENTA, AZ 86033",36.714146,-110.251319
32561,15,032561 CASA GRANDE DIALYSIS (FMC),01Jan2020-31Dec2023,3.0,1,1875 E Sabin Dr,,CASA GRANDE,AZ,85122,Pinal,existing,"1875 E Sabin Dr, CASA GRANDE, AZ 85122",32.881069,-111.706528
32562,15,DaVita Cottonwood Dialysis,01Jan2020-31Dec2023,2.0,1,"1699 E COTTONWOOD ST, A-200",,COTTONWOOD,AZ,86326,Yavapai,existing,"1699 E COTTONWOOD ST, A-200, COTTONWOOD, AZ 86326",34.728375,-112.005171
32563,15,032563 SCOTTSDALE DIALYSIS (FMC),01Jan2020-31Dec2023,,260,1495 N HAYDEN STE D1-D4,,SCOTTSDALE,AZ,85257,Maricopa,existing,"1495 N HAYDEN STE D1-D4, SCOTTSDALE, AZ 85257",33.464504,-111.90831
32564,15,032564 MARYVALE DIALYSIS (FMC),01Jan2020-31Dec2023,2.0,1,4502 W INDIAN SCHOOL RD STE A4-11,,PHOENIX,AZ,85031,Maricopa,existing,"4502 W INDIAN SCHOOL RD STE A4-11, PHOENIX, AZ 85031",33.49549,-112.15658
32565,15,032565 DESERT DIALYSIS CENTER SOUTH TUCSON (DCI),01Jan2020-31Dec2023,1.0,1,1011 E PENNSYLVANIA ST,,TUCSON,AZ,85719,Pima,existing,"1011 E PENNSYLVANIA ST, TUCSON, AZ 85719",32.172183,-110.955647
32568,15,032568 RED MOUNTAIN DIALYSIS (FMC),01Jan2020-31Dec2023,2.0,1,1211 N COUNTRY CLUB DR STE 4,,MESA,AZ,85201,Maricopa,existing,"1211 N COUNTRY CLUB DR STE 4, MESA, AZ 85201",33.436465,-111.83935
32571,15,032571 NORTH SCOTTSDALE DIALYSIS (FMC),01Jan2020-31Dec2023,3.0,1,16101 N 82ND ST STE 6-7,,SCOTTSDALE,AZ,85260,Maricopa,existing,"16101 N 82ND ST STE 6-7, SCOTTSDALE, AZ 85260",33.632866,-111.902469
32572,15,DaVita Desert Dialysis,01Jan2020-31Dec2023,2.0,1,13000 N 103RD AVE STE 66,,SUN CITY,AZ,85351,Maricopa,existing,"13000 N 103RD AVE STE 66, SUN CITY, AZ 85351",33.601992,-112.281744
32573,15,DaVita Pascua Yaqui Tribe Dialysis,01Jan2020-31Dec2023,3.0,1,7490 S CAMINO DE OESTE,,TUCSON,AZ,85757,Pima,existing,"7490 S CAMINO DE OESTE, TUCSON, AZ 85757",32.115091,-111.063818
32575,15,032575 SHOW LOW DIALYSIS (FMC),01Jan2020-31Dec2023,4.0,1,1500 S WHITE MOUNTAIN BLVD STE 204,,SHOW LOW,AZ,85901,Navajo,existing,"1500 S WHITE MOUNTAIN BLVD STE 204, SHOW LOW, AZ 85901",34.236784,-110.027379
32578,15,032578 APACHE JUNCTION DIALYSIS (FMC),01Jan2020-31Dec2023,2.0,1,11540 E UNIVERSITY DR STE 109,,APACHE JUNCTION,AZ,85120,Pinal,existing,"11540 E UNIVERSITY DR STE 109, APACHE JUNCTION, AZ 85120",33.423685,-111.581508
32579,15,032579 SUN LAKES DIALYSIS (FMC),01Jan2020-31Dec2023,2.0,1,9666 E RIGGS RD STE 143,,SUN LAKES,AZ,85248,Maricopa,existing,"9666 E RIGGS RD STE 143, SUN LAKES, AZ 85248",33.219593,-111.874318
32580,15,032580 PALM VALLEY DIALYSIS (FMC),01Jan2020-31Dec2023,3.0,1,13657 W MCDOWELL RD STE 106,,GOODYEAR,AZ,85338,Maricopa,existing,"13657 W MCDOWELL RD STE 106, GOODYEAR, AZ 85338",33.463581,-112.353223
32583,15,032583 USRC SOUTH PHOENIX,01Jan2020-31Dec2023,1.0,1,4621 S CENTRAL AVE,,PHOENIX,AZ,85040,Maricopa,existing,"4621 S CENTRAL AVE, PHOENIX, AZ 85040",33.40433,-112.07303
32587,15,032587 DEER VALLEY DIALYSIS (FMC),01Jan2020-31Dec2023,4.0,1,21241 N 23RD AVE STE 11,,PHOENIX,AZ,85027,Maricopa,existing,"21241 N 23RD AVE STE 11, PHOENIX, AZ 85027",33.67915,-112.107028
32589,15,DaVita Tucson South Central Dialysis,01Jan2020-31Dec2023,1.0,1,2024 E IRVINGTON RD,STE 7,TUCSON,AZ,85714,Pima,existing,"2024 E IRVINGTON RD, TUCSON, AZ 85714",32.162157,-110.940912
32592,15,DaVita Hopi Dialysis Center,01Jan2020-31Dec2023,2.0,1,HIGHWAY 264 MILE MARKER 388,PO BOX 964,POLACCA,AZ,86042,Navajo,existing,"HIGHWAY 264 MILE MARKER 388, POLACCA, AZ 86042",34.150394,-114.28915
32593,15,032593 GRANITE VALLEY DIALYSIS (FMC),01Jan2020-31Dec2023,3.0,1,14510 W SHUMWAY DR STE 100,,SUN CITY WEST,AZ,85375,Maricopa,existing,"14510 W SHUMWAY DR STE 100, SUN CITY WEST, AZ 85375",33.663324,-112.37203
32594,15,032594 SALT RIVER DIALYSIS CENTER (FMC),01Jan2020-31Dec2023,4.0,1,10301 E OSBORN RD BLDG 14,,SCOTTSDALE,AZ,85256,Maricopa,existing,"10301 E OSBORN RD BLDG 14, SCOTTSDALE, AZ 85256",33.487499,-111.859068
32596,15,032596 USRC NORTHEAST PHOENIX,01Jan2020-31Dec2023,3.0,1,3305 E GREENWAY RD STE 1,,PHOENIX,AZ,85032,Maricopa,existing,"3305 E GREENWAY RD STE 1, PHOENIX, AZ 85032",33.625885,-112.010799
32597,15,032597 SAN CARLOS DIALYSIS (FMC),01Jan2020-31Dec2023,3.0,1,US 70 & AZ ROUTE 170,,PERIDOT,AZ,85542,Gila,existing,"US 70 & AZ ROUTE 170, PERIDOT, AZ 85542",33.300614,-110.456477
32599,15,032599 AHWATUKEE DIALYSIS (FMC),01Jan2020-31Dec2023,3.0,1,15930 48th Street,,PHOENIX,AZ,85048,Maricopa,existing,"15930 48th Street, PHOENIX, AZ 85048",33.302018,-111.982522
32601,15,DaVita Palm Brook Dialysis Center,01Jan2020-31Dec2023,2.0,1,14664 N DEL WEBB BLVD,,SUN CITY,AZ,85351,Maricopa,existing,"14664 N DEL WEBB BLVD, SUN CITY, AZ 85351",33.618548,-112.29291
32604,15,DaVita Arrowhead Lakes Dialysis Center,01Jan2020-31Dec2023,3.0,1,20325 N 51ST AVE STE 186 BLDG 11,,GLENDALE,AZ,85308,Maricopa,existing,"20325 N 51ST AVE STE 186 BLDG 11, GLENDALE, AZ 85308",33.669511,-112.16859
32605,15,DaVita Gilbert Dialysis Center,01Jan2020-31Dec2023,3.0,1,5222 E BASELINE RD STE 104,,GILBERT,AZ,85234,Maricopa,existing,"5222 E BASELINE RD STE 104, GILBERT, AZ 85234",33.380348,-111.718799
32607,15,032607 AVONDALE DIALYSIS (FMC),01Jan2020-31Dec2023,4.0,1,10750 W MCDOWELL RD STE E500,,AVONDALE,AZ,85323,Maricopa,existing,"10750 W MCDOWELL RD STE E500, AVONDALE, AZ 85323",33.46505,-112.291157
32608,15,032608 AVONDALE DIALYSIS (DSI),01Jan2020-31Dec2023,2.0,1,13055 W MCDOWELL RD STE F101,,AVONDALE,AZ,85392,Maricopa,existing,"13055 W MCDOWELL RD STE F101, AVONDALE, AZ 85392",33.46334,-112.336678
32609,15,DaVita Tempe Dialysis Center,01Jan2020-31Dec2023,3.0,1,2149 E WARNER RD STE 109 & STE 110,,TEMPE,AZ,85284,Maricopa,existing,"2149 E WARNER RD STE 109 & STE 110, TEMPE, AZ 85284",33.333715,-111.894865
32610,15,032610 SOUTHEAST VALLEY DIALYSIS (FMC),01Jan2020-31Dec2023,2.0,1,22715 S ELLSWORTH RD STE D,,QUEEN CREEK,AZ,85142,Maricopa,existing,"22715 S ELLSWORTH RD STE D, QUEEN CREEK, AZ 85142",33.241909,-111.632546
32611,15,DaVita Phoenix Dialysis Center,01Jan2020-31Dec2023,2.0,1,337 E CORONADO RD STE 101,,PHOENIX,AZ,85004,Maricopa,existing,"337 E CORONADO RD STE 101, PHOENIX, AZ 85004",33.467072,-112.067663
32612,15,DaVita Estrella Dialysis Center,01Jan2020-31Dec2023,3.0,1,8410 W THOMAS RD STE 100 BLDG 1,,PHOENIX,AZ,85037,Maricopa,existing,"8410 W THOMAS RD STE 100 BLDG 1, PHOENIX, AZ 85037",33.480839,-112.241343
32613,15,032613 NORTHWEST TUCSON DIALYSIS (FMC),01Jan2020-31Dec2023,3.0,1,6261 N LA CHOLLA BLVD STE 181,,TUCSON,AZ,85741,Pima,existing,"6261 N LA CHOLLA BLVD STE 181, TUCSON, AZ 85741",32.320773,-111.013258
32614,15,032614 DOUGLAS DIALYSIS CENTER (DCI),01Jan2020-31Dec2023,2.0,1,99 E 16TH ST,,DOUGLAS,AZ,85607,Cochise,existing,"99 E 16TH ST, DOUGLAS, AZ 85607",31.350012,-109.560844
32616,15,032616 DESERT DIALYSIS SAHUARITA (DCI),01Jan2020-31Dec2023,2.0,1,1700 W COMMERCE POINTE PL,,SAHUARITA,AZ,85629,Pima,existing,"1700 W COMMERCE POINTE PL, SAHUARITA, AZ 85629",31.89719,-111.002328
32617,15,032617 TUCSON WEST DIALYSIS CENTER (FMC),01Jan2020-31Dec2023,3.0,1,100 W GRANT RD,,TUCSON,AZ,85705,Pima,existing,"100 W GRANT RD, TUCSON, AZ 85705",32.25112,-110.9737
32618,15,DaVita Northwest Tucson Dialysis,01Jan2020-31Dec2023,2.0,1,2945 W INA RD STE 105,,TUCSON,AZ,85741,Pima,existing,"2945 W INA RD STE 105, TUCSON, AZ 85741",32.336661,-111.030259
32619,15,DaVita Mountain Vista Dialysis Center of Arizona,01Jan2020-31Dec2023,2.0,1,10238 E HAMPTON AVE STE 108,,MESA,AZ,85209,Maricopa,existing,"10238 E HAMPTON AVE STE 108, MESA, AZ 85209",33.39109,-111.609881
32620,15,DaVita Grand Home Dialysis,01Jan2020-31Dec2023,,260,14671 W. Mountain View Blvd.,Suite 106,Surprise,AZ,85374,Maricopa,existing,"14671 W. Mountain View Blvd., Surprise, AZ 85374",33.65386,-112.377037
32622,15,032622 GOODYEAR DIALYSIS (FMC),01Jan2020-31Dec2023,2.0,1,500 N BULLARD AVE STE C34,,GOODYEAR,AZ,85338,Maricopa,existing,"500 N BULLARD AVE STE C34, GOODYEAR, AZ 85338",33.451916,-112.376405
32624,15,DaVita Central Mesa Dialysis Center,01Jan2020-31Dec2023,3.0,1,1134 E UNIVERSITY DR STE 101,,MESA,AZ,85203,Maricopa,existing,"1134 E UNIVERSITY DR STE 101, MESA, AZ 85203",33.42298,-111.806584
32625,15,DaVita Raven Dialysis Center,01Jan2020-31Dec2023,2.0,1,3540 E BASELINE RD STE 110,,PHOENIX,AZ,85042,Maricopa,existing,"3540 E BASELINE RD STE 110, PHOENIX, AZ 85042",33.378787,-112.004984
32626,15,032626 MIDVALE PARK DIALYSIS (FMC),01Jan2020-31Dec2023,4.0,1,1430 W VALENCIA RD STE 1,,TUCSON,AZ,85746,Pima,existing,"1430 W VALENCIA RD STE 1, TUCSON, AZ 85746",32.134561,-110.994892
32627,15,DaVita Tucson Central Dialysis,01Jan2020-31Dec2023,3.0,1,2901 E GRANT RD,,TUCSON,AZ,85716,Pima,existing,"2901 E GRANT RD, TUCSON, AZ 85716",32.250613,-110.928707
32628,15,032628 KINGMAN DIALYSIS CLINIC (FMC),01Jan2020-31Dec2023,1.0,1,1721 Airway Ave,,KINGMAN,AZ,86409,Mohave,existing,"1721 Airway Ave, KINGMAN, AZ 86409",35.225309,-114.037984
32629,15,032629 SOUTH TUCSON DIALYSIS (FMC),01Jan2020-31Dec2023,3.0,1,2802 SOUTH 6TH AVE,,TUCSON,AZ,85713,Pima,existing,"2802 SOUTH 6TH AVE, TUCSON, AZ 85713",32.19023,-110.96863
32630,15,DaVita Brookwood Dialysis Center,01Jan2020-31Dec2023,1.0,1,8910 N 43RD AVE STE 107,,GLENDALE,AZ,85302,Maricopa,existing,"8910 N 43RD AVE STE 107, GLENDALE, AZ 85302",33.566115,-112.153036
32631,15,DaVita Ocotillo Dialysis,01Jan2020-31Dec2023,3.0,1,975 W CHANDLER HEIGHTS RD,UNIT 101,CHANDLER,AZ,85248,Maricopa,existing,"975 W CHANDLER HEIGHTS RD, CHANDLER, AZ 85248",33.231653,-111.857187
32632,15,DaVita Rita Ranch Dialysis (AKA Tucson East II),01Jan2020-31Dec2023,4.0,1,7355 S HOUGHTON RD STE 101,,TUCSON,AZ,85747,Pima,existing,"7355 S HOUGHTON RD STE 101, TUCSON, AZ 85747",32.118369,-110.770853
32633,15,032633 SANTAN DIALYSIS (FMC),01Jan2020-31Dec2023,2.0,1,300 W HIGHWAY 287,,FLORENCE,AZ,85132,Pinal,existing,"300 W HIGHWAY 287, FLORENCE, AZ 85132",33.01945,-111.39168
32634,15,DaVita Maryvale Dialysis Center,01Jan2020-31Dec2023,3.0,1,4845 W MCDOWELL RD,"STE 10A, 20A,30A",PHOENIX,AZ,85035,Maricopa,existing,"4845 W MCDOWELL RD, PHOENIX, AZ 85035",33.465305,-112.16337
32635,15,032635 GILBERT DIALYSIS (FMC),01Jan2020-31Dec2023,4.0,1,3511 MERCY RD STE 101,,GILBERT,AZ,85297,Maricopa,existing,"3511 MERCY RD STE 101, GILBERT, AZ 85297",33.285541,-111.749987
32636,15,032636 US Renal Care Flagstaff Dialysis,01Jan2020-31Dec2023,1.0,1,2268 N WALGREENS ST,,FLAGSTAFF,AZ,86004,Coconino,existing,"2268 N WALGREENS ST, FLAGSTAFF, AZ 86004",35.20721,-111.602979
32637,15,DaVita Wickenburg Dialysis,01Jan2020-31Dec2023,2.0,1,811 N TEGNER,"STE 101,103,105,107",WICKENBURG,AZ,85390,Maricopa,existing,"811 N TEGNER, WICKENBURG, AZ 85390",33.976134,-112.735233
32638,15,DaVita Power Road Dialysis PD,01Jan2020-31Dec2023,2.0,1,301 S Power Road Suite 104,,MESA,AZ,85206,Maricopa,existing,"301 S Power Road Suite 104, MESA, AZ 85206",33.410615,-111.683428
32639,15,"032639 ESTRELLA MOUNTAIN DIALYSIS, LLC (ARA)",01Jan2020-31Dec2023,3.0,1,9250 West Thomas Road,Suite 120,PHOENIX,AZ,85037,Maricopa,existing,"9250 West Thomas Road, PHOENIX, AZ 85037",33.480449,-112.258798
32640,15,DaVita Sweetwater Ridge Dialysis,01Jan2020-31Dec2023,3.0,1,7362 W Thunderbird Rd Suite 104,,PEORIA,AZ,85381,Maricopa,existing,"7362 W Thunderbird Rd Suite 104, PEORIA, AZ 85381",33.61103,-112.217776
32642,15,DaVita Phoenix Home Dialysis PD Only,01Jan2020-31Dec2023,4.0,1,5115 E THOMAS RD STE 100,,PHOENIX,AZ,85018,Maricopa,existing,"5115 E THOMAS RD STE 100, PHOENIX, AZ 85018",33.479493,-111.970183
32643,15,032643 EAST TUCSON (FMC),01Jan2020-31Dec2023,3.0,1,5555 E 5TH ST #155,,TUCSON,AZ,85711,Pima,existing,"5555 E 5TH ST #155, TUCSON, AZ 85711",32.229372,-110.874084
32644,15,DaVita Edge River Dialysis,01Jan2020-31Dec2023,4.0,1,1197 S REDONDO CENTER DR,,YUMA,AZ,85365,Yuma,existing,"1197 S REDONDO CENTER DR, YUMA, AZ 85365",32.70587,-114.61259
32645,15,DaVita Fountain Hills Dialysis,01Jan2020-31Dec2023,3.0,1,13430 N SAGUARO BLVD,BLDG 3,FOUNTAIN HILLS,AZ,85268,Maricopa,existing,"13430 N SAGUARO BLVD, FOUNTAIN HILLS, AZ 85268",33.608055,-111.714788
32646,15,032646-FMC-GLENDALE TOWN CENTER,01Jan2020-31Dec2023,3.0,1,4407 WEST PEORIA AVE,,GLENDALE,AZ,85302,Maricopa,existing,"4407 WEST PEORIA AVE, GLENDALE, AZ 85302",33.581525,-112.154264
32647,15,032647-FMC NORTH MOUNTAIN,01Jan2020-31Dec2023,2.0,1,16605 NORTH 28TH AVENUE,SUITE 100,PHOENIX,AZ,85053,Maricopa,existing,"16605 NORTH 28TH AVENUE, PHOENIX, AZ 85053",33.637011,-112.118612
32648,15,032648-FMC OLD TOWN SCOTTSDALE,01Jan2020-31Dec2023,3.0,1,4141 N Scottsdale Rd,Ste 100,SCOTTSDALE,AZ,85251,Maricopa,existing,"4141 N Scottsdale Rd, SCOTTSDALE, AZ 85251",33.495625,-111.925368
32650,15,032650 Fresenius Kidney Care Desert Sage,01Jan2020-31Dec2023,3.0,1,4901 W McDowell Road,Suite 120,PHOENIX,AZ,85035,Maricopa,existing,"4901 W McDowell Road, PHOENIX, AZ 85035",33.46525,-112.16597
32651,15,DaVita Swan Dialysis,01Jan2020-31Dec2023,3.0,1,1635 N Swan Road,,TUCSON,AZ,85712,Pima,existing,"1635 N Swan Road, TUCSON, AZ 85712",32.242464,-110.893939
32652,15,DaVita Oro Valley Dialysis,01Jan2020-31Dec2023,2.0,1,1521 E Tangerine Road,Suite 101,Oro Valley,AZ,85755,Pima,existing,"1521 E Tangerine Road, Oro Valley, AZ 85755",32.428909,-110.949995
32653,15,032653-Fresenius Kidney Care Westgate Home,01Jan2020-31Dec2023,4.0,1,6622 N 91st Avenue,Ste 210,Glendale,AZ,85305,Maricopa,existing,"6622 N 91st Avenue, Glendale, AZ 85305",33.532575,-112.255748
32654,15,032654-Fresenius Kidney Care Canyon Vista,01Jan2020-31Dec2023,2.0,1,5555 Mesa Verde Dr,Suite 120,Sierra Vista,AZ,85635,Cochise,existing,"5555 Mesa Verde Dr, Sierra Vista, AZ 85635",31.55185,-110.232718
32655,15,DaVita Evergreen Park Dialysis,01Jan2020-31Dec2023,2.0,1,926 E Mc Dowell Rd,Suite 100,Phoenix,AZ,85006,Maricopa,existing,"926 E Mc Dowell Rd, Phoenix, AZ 85006",33.466226,-112.061336
32656,15,032656-Fresenius Kidney Care Westgate,01Jan2020-31Dec2023,5.0,1,6622 N 91st Ave,Suite 120,Glendale,AZ,85305,Maricopa,existing,"6622 N 91st Ave, Glendale, AZ 85305",33.532575,-112.255748
32657,15,Fresenius Kidney Care Tangerine Crossing,01Jan2020-31Dec2023,3.0,1,3600 W Tangerine Rd,Suite 120,Marana,AZ,85658,Pima,existing,"3600 W Tangerine Rd, Marana, AZ 85658",32.42449,-111.04209
32658,15,DaVita Dialysis Care at Palm Valley,01Jan2020-31Dec2023,2.0,1,14620 West Encanto Blvd,STE 110,Goodyear,AZ,85395,Maricopa,new,"14620 West Encanto Blvd, Goodyear, AZ 85395",33.472191,-112.374059
32659,15,Fresenius Kidney Care Prescott Valley East,01Jan2020-31Dec2023,3.0,1,7862 E Florentine Rd,Suite 100,Prescott Valley,AZ,86314,Yavapai,new,"7862 E Florentine Rd, Prescott Valley, AZ 86314",34.588428,-112.328801
32660,15,"Scottsdale Kidney Center, LLC",01Jan2020-31Dec2023,1.0,1,6970 East Chauncey Lane,Suite 130,Phoenix,AZ,85054,Maricopa,new,"6970 East Chauncey Lane, Phoenix, AZ 85054",33.653021,-111.930407
32661,15,032661-Fresenius Kidney Care Gateway,01Jan2020-31Dec2023,3.0,1,450 South Gilbert Road,,Chandler,AZ,85225,Maricopa,new,"450 South Gilbert Road, Chandler, AZ 85225",33.297766,-111.790355
32662,15,DaVita Stonebrook Dialysis,01Jan2020-31Dec2023,3.0,1,14671 W Mountain View Blvd,Suite 102,Surprise,AZ,85374,Maricopa,new,"14671 W Mountain View Blvd, Surprise, AZ 85374",33.65386,-112.377037
32663,15,DaVita Desert Dunes Dialysis,01Jan2020-31Dec2023,3.0,1,2500 S 8th Ave,Suite 102,Yuma,AZ,85364,Yuma,new,"2500 S 8th Ave, Yuma, AZ 85364",32.681752,-114.629999
32664,15,Fresenius Kidney Care Cottonwood,01Jan2020-31Dec2023,2.0,1,455 S Calvary Way,,Cottonwood,AZ,86326,Yavapai,new,"455 S Calvary Way, Cottonwood, AZ 86326",34.732045,-112.030236
33503,15,033503 GILA RIVER DIALYSIS WEST,01Jan2020-31Dec2023,3.0,1,"9721 WEST PECOS RD- RR2, BOX 807",,LAVEEN,AZ,85339,Maricopa,existing,"9721 WEST PECOS RD- RR2, BOX 807, LAVEEN, AZ 85339",33.29047,-112.155095
33504,15,033504 VALLEYWISE COMPREHENSIVE HEALTH CENTER-PEORIA OUTPATIENT DIALYSIS,01Jan2020-31Dec2023,4.0,1,8088 W Whitney Drive,,Peoria,AZ,85345,Maricopa,existing,"8088 W Whitney Drive, Peoria, AZ 85345",33.576507,-112.232934
42303,13,ST BERNARDS REGIONAL MED CTR-DIALYSIS,01Jan2020-31Dec2023,2.0,1,540 E WASHINGTON,,JONESBORO,AR,72401,Craighead,existing,"540 E WASHINGTON, JONESBORO, AR 72401",35.838694,-90.700135
42310,13,ARKANSAS CHILDRENS HOSPITAL-DIALYSIS,01Jan2020-31Dec2023,,260,1 CHILDRENS WAY-SLOT 204,,LITTLE ROCK,AR,72202,Pulaski,existing,"1 CHILDRENS WAY-SLOT 204, LITTLE ROCK, AR 72202",34.742846,-92.292668
42501,13,FT SMITH REGIONAL DIALYSIS CTR,01Jan2020-31Dec2023,1.0,1,2201 BROOKEN HILL DR,,FORT SMITH,AR,72908,Sebastian,existing,"2201 BROOKEN HILL DR, FORT SMITH, AR 72908",35.298548,-94.41199
42508,13,DaVita River Valley Dialysis,01Jan2020-31Dec2023,2.0,1,3121 W SECOND CT,,RUSSELLVILLE,AR,72801,Pope,existing,"3121 W SECOND CT, RUSSELLVILLE, AR 72801",35.285589,-93.167977
42510,13,FMCNA - HELENA,01Jan2020-31Dec2023,3.0,1,108 D ANNA PL,,HELENA,AR,72342,Phillips,existing,"108 D ANNA PL, HELENA, AR 72342",34.51808,-90.6335
42512,13,DaVita Degray Dialysis,01Jan2020-31Dec2023,3.0,1,312 PROFESSIONAL PARK DR STE H,,ARKADELPHIA,AR,71923,Clark,existing,"312 PROFESSIONAL PARK DR STE H, ARKADELPHIA, AR 71923",34.121146,-93.088881
42513,13,DaVita Springhill Dialysis,01Jan2020-31Dec2023,2.0,1,SPRINGHILL MEDICAL PLAZA,3401 SPRINGHILL DR STE 190,NORTH LITTLE ROCK,AR,72117,Pulaski,existing,"SPRINGHILL MEDICAL PLAZA, NORTH LITTLE ROCK, AR 72117",34.754313,-92.220608
42514,13,DaVita Searcy Dialysis,01Jan2020-31Dec2023,2.0,1,3208 LANGLEY DR,,SEARCY,AR,72143,White,existing,"3208 LANGLEY DR, SEARCY, AR 72143",35.245543,-91.694982
42515,13,KIDNEY DISEASE AND DIALYSIS CLINIC OF MAGNOLIA,01Jan2020-31Dec2023,,260,1411 N JACKSON,,MAGNOLIA,AR,71754,Columbia,existing,"1411 N JACKSON, MAGNOLIA, AR 71754",33.280518,-93.236166
42517,13,DaVita Conway Dialysis,01Jan2020-31Dec2023,3.0,1,2445 CHRISTINA LN,,CONWAY,AR,72034,Faulkner,existing,"2445 CHRISTINA LN, CONWAY, AR 72034",35.068036,-92.462028
42518,13,FMCNA - FAULKNER COUNTY,01Jan2020-31Dec2023,1.0,1,201 SKYLINE DR  STE 32,,CONWAY,AR,72032,Faulkner,existing,"201 SKYLINE DR  STE 32, CONWAY, AR 72032",35.110938,-92.430756
42521,13,FMCNA - LITTLE ROCK DIALYSIS,01Jan2020-31Dec2023,2.0,1,1401 Aldersgate rd,,Little Rock,AR,72205,Pulaski,existing,"1401 Aldersgate rd, Little Rock, AR 72205",34.740459,-92.389376
42525,13,DaVita Ouachita Valley Dialysis,01Jan2020-31Dec2023,2.0,1,1114 WASHINGTON  ST NW,,CAMDEN,AR,71701,Ouachita,existing,"1114 WASHINGTON  ST NW, CAMDEN, AR 71701",33.585284,-92.849091
42527,13,FKC - LAKE VILLAGE,01Jan2020-31Dec2023,2.0,1,505 SAINT MARYS STREET,,LAKE VILLAGE,AR,71653,Chicot,existing,"505 SAINT MARYS STREET, LAKE VILLAGE, AR 71653",33.32955,-91.28619
42528,13,FMCNA - EAST ARKANSAS,01Jan2020-31Dec2023,1.0,1,310 S RHODES,,WEST MEMPHIS,AR,72301,Crittenden,existing,"310 S RHODES, WEST MEMPHIS, AR 72301",35.143085,-90.187136
42531,13,DaVita Hot Springs Dialysis,01Jan2020-31Dec2023,2.0,1,115 WRIGHTS ST STE A,,HOT SPRINGS,AR,71913,Garland,existing,"115 WRIGHTS ST STE A, HOT SPRINGS, AR 71913",34.472029,-93.061934
42532,13,FMCNA - PINE BLUFF,01Jan2020-31Dec2023,1.0,1,2910 MARKET ST,,PINE BLUFF,AR,71601,Jefferson,existing,"2910 MARKET ST, PINE BLUFF, AR 71601",34.212577,-91.969848
42533,13,FMCNA - ST FRANCIS COUNTY DIALYSIS,01Jan2020-31Dec2023,1.0,1,210 BARROW HILL RD,,FORREST CITY,AR,72335,Saint Francis,existing,"210 BARROW HILL RD, FORREST CITY, AR 72335",35.05329,-90.78094
42534,13,DaVita Osceola Dialysis,01Jan2020-31Dec2023,1.0,1,1332 W KEISER AVE,,OSCEOLA,AR,72370,Mississippi,existing,"1332 W KEISER AVE, OSCEOLA, AR 72370",35.69861,-89.98969
42536,13,DaVita South Arkansas Dialysis,01Jan2020-31Dec2023,4.0,1,620 W GROVE ST,,EL DORADO,AR,71730,Union,existing,"620 W GROVE ST, EL DORADO, AR 71730",33.218679,-92.669691
42537,13,FMCNA - STUTTGART DIALYSIS,01Jan2020-31Dec2023,1.0,1,805 WEST MADISON,,STUTTGART,AR,72160,Arkansas,existing,"805 WEST MADISON, STUTTGART, AR 72160",34.499254,-91.552599
42539,13,DaVita Fayetteville Dialysis,01Jan2020-31Dec2023,2.0,1,509 E MILLSAP STE 111,,FAYETTEVILLE,AR,72703,Washington,existing,"509 E MILLSAP STE 111, FAYETTEVILLE, AR 72703",36.113655,-94.150226
42540,13,DaVita Bentonville Dialysis,01Jan2020-31Dec2023,3.0,1,1104 SE 30TH ST,,BENTONVILLE,AR,72712,Benton,existing,"1104 SE 30TH ST, BENTONVILLE, AR 72712",36.33965,-94.19623
42543,13,FMCNA - MONTICELLO,01Jan2020-31Dec2023,1.0,1,774 JORDAN DR,,MONTICELLO,AR,71655,Drew,existing,"774 JORDAN DR, MONTICELLO, AR 71655",33.608606,-91.817316
42545,13,DaVita Southwest Arkansas Dialysis,01Jan2020-31Dec2023,3.0,1,405 N FREDERICK,,MAGNOLIA,AR,71753,Columbia,existing,"405 N FREDERICK, MAGNOLIA, AR 71753",33.270029,-93.225171
42547,13,DaVita Little Rock Midtown Dialysis,01Jan2020-31Dec2023,1.0,1,"2 LILE CT, STE 102A",,LITTLE ROCK,AR,72205,Pulaski,existing,"2 LILE CT, STE 102A, LITTLE ROCK, AR 72205",34.746312,-92.378342
42548,13,DaVita North Little Rock Dialysis Center,01Jan2020-31Dec2023,1.0,1,4505 E MCCAIN BLVD,,NORTH LITTLE ROCK,AR,72117,Pulaski,existing,"4505 E MCCAIN BLVD, NORTH LITTLE ROCK, AR 72117",34.789585,-92.214077
42550,13,BMA BLYTHEVILLE,01Jan2020-31Dec2023,2.0,1,1001 E MOULTRIE,,BLYTHEVILLE,AR,72315,Mississippi,existing,"1001 E MOULTRIE, BLYTHEVILLE, AR 72315",35.935836,-89.882527
42553,13,DaVita Jacksonville Central Dialysis Center,01Jan2020-31Dec2023,2.0,1,400 T P WHITE DR,,JACKSONVILLE,AR,72076,Pulaski,existing,"400 T P WHITE DR, JACKSONVILLE, AR 72076",34.871268,-92.122642
42554,13,DaVita Jackson County Dialysis,01Jan2020-31Dec2023,1.0,1,1912 MCCLAIN ST,PRATT SQUARE,NEWPORT,AR,72112,Jackson,existing,"1912 MCCLAIN ST, NEWPORT, AR 72112",35.607953,-91.257249
42556,13,FMCNA - BENTON,01Jan2020-31Dec2023,2.0,1,2101 CONGO RD,,BENTON,AR,72015,Saline,existing,"2101 CONGO RD, BENTON, AR 72015",34.583634,-92.571821
42557,13,DaVita Independence County Dialysis,01Jan2020-31Dec2023,1.0,1,1700 HARRISON ST STE F,,BATESVILLE,AR,72501,Independence,existing,"1700 HARRISON ST STE F, BATESVILLE, AR 72501",35.769135,-91.634164
42558,13,DaVita Saline County Dialysis,01Jan2020-31Dec2023,3.0,1,GROUND LEVEL-1200 N MAIN STE 2,,BENTON,AR,72015,Saline,existing,"GROUND LEVEL-1200 N MAIN STE 2, BENTON, AR 72015",34.57394,-92.587001
42560,13,DaVita Ashley Dialysis,01Jan2020-31Dec2023,5.0,1,1019 FRED LAGRONE DR,,CROSSETT,AR,71635,Ashley,existing,"1019 FRED LAGRONE DR, CROSSETT, AR 71635",33.139713,-91.937809
42562,13,US RENAL CARE OF NORTHEAST AR - PARAGOULD,01Jan2020-31Dec2023,1.0,1,901 W KINGS HIGHWAY,,PARAGOULD,AR,72450,Greene,existing,"901 W KINGS HIGHWAY, PARAGOULD, AR 72450",36.052961,-90.498005
42563,13,DaVita Hempstead County Dialysis,01Jan2020-31Dec2023,2.0,1,"1301 N Hervey St, Suite B",,Hope,AR,71801,Hempstead,existing,"1301 N Hervey St, Suite B, Hope, AR 71801",33.68094,-93.603369
42564,13,US RENAL CARE - PINE BLUFF,01Jan2020-31Dec2023,1.0,1,2800 W 28TH ST,,PINE BLUFF,AR,71603,Jefferson,existing,"2800 W 28TH ST, PINE BLUFF, AR 71603",34.201458,-92.031854
42567,13,DaVita Renal Center of Mountain Home,01Jan2020-31Dec2023,3.0,1,200 EAST 8TH ST #101,,MOUNTAIN HOME,AR,72653,Baxter,existing,"200 EAST 8TH ST #101, MOUNTAIN HOME, AR 72653",36.333735,-92.383195
42568,13,DaVita Springdale Dialysis,01Jan2020-31Dec2023,3.0,1,2070 McKenzie Road,Ste B,SPRINGDALE,AR,72762,Washington,existing,"2070 McKenzie Road, SPRINGDALE, AR 72762",36.167585,-94.18596
42569,13,HOPE DIALYSIS CENTER,01Jan2020-31Dec2023,,260,407 W 16TH ST,,HOPE,AR,71801,Hempstead,existing,"407 W 16TH ST, HOPE, AR 71801",33.6534,-93.591935
42570,13,DaVita Malvern Dialysis,01Jan2020-31Dec2023,2.0,1,1590 TANNER ST,,MALVERN,AR,72104,Hot Spring,existing,"1590 TANNER ST, MALVERN, AR 72104",34.385789,-92.832367
42571,13,DaVita Central Little Rock Dialysis,01Jan2020-31Dec2023,2.0,1,6 FREEWAY DRIVE,SUITE 100,LITTLE ROCK,AR,72204,Pulaski,existing,"6 FREEWAY DRIVE, LITTLE ROCK, AR 72204",34.743267,-92.355548
42573,13,DaVita Renal Care Marion at Home,01Jan2020-31Dec2023,1.0,1,1120 STATE HWY 77  STE 2,,MARION,AR,72364,Crittenden,existing,"1120 STATE HWY 77  STE 2, MARION, AR 72364",35.18379,-90.18403
42574,13,NORTH HILLS DIALYSIS,01Jan2020-31Dec2023,3.0,1,107 E MONTE PAINTER DR,,FAYETTEVILLE,AR,72703,Washington,existing,"107 E MONTE PAINTER DR, FAYETTEVILLE, AR 72703",36.109469,-94.15592
42575,13,BENTON COUNTY DIALYSIS CTR,01Jan2020-31Dec2023,3.0,1,801 SE PLAZA AVE STE 1,,BENTONVILLE,AR,72712,Benton,existing,"801 SE PLAZA AVE STE 1, BENTONVILLE, AR 72712",36.334373,-94.201141
42576,13,DaVita Bradley County Dialysis,01Jan2020-31Dec2023,2.0,1,204 BRAGG ST,,WARREN,AR,71671,Bradley,existing,"204 BRAGG ST, WARREN, AR 71671",33.61292,-92.07782
42577,13,NEA BAPTIST CLINIC - MIDDLEFIELD,01Jan2020-31Dec2023,2.0,1,3005 MIDDLEFIELD,,JONESBORO,AR,72401,Craighead,existing,"3005 MIDDLEFIELD, JONESBORO, AR 72401",35.808772,-90.664086
42578,13,DaVita Miller County Dialysis,01Jan2020-31Dec2023,3.0,1,816 EAST ST,,TEXARKANA,AR,71854,Miller,existing,"816 EAST ST, TEXARKANA, AR 71854",33.413047,-94.028678
42580,13,DIALYSIS CENTER OF SILOAM SPRINGS,01Jan2020-31Dec2023,5.0,1,2125 E MAIN STE 12,,SILOAM SPRINGS,AR,72761,Benton,existing,"2125 E MAIN STE 12, SILOAM SPRINGS, AR 72761",36.18166,-94.5187
42581,13,"VAMANA, INC",01Jan2020-31Dec2023,1.0,1,422 BEECH ST,,TEXARKANA,AR,71854,Miller,existing,"422 BEECH ST, TEXARKANA, AR 71854",33.427604,-94.036691
42582,13,DaVita Mena Dialysis Center,01Jan2020-31Dec2023,2.0,1,1200 CRESTWOOD CIR,,MENA,AR,71953,Polk,existing,"1200 CRESTWOOD CIR, MENA, AR 71953",34.588461,-94.219111
42583,13,DCI - MCCRORY,01Jan2020-31Dec2023,,260,139 W HWY 64 STE 100,,MCCRORY,AR,72101,Woodruff,existing,"139 W HWY 64 STE 100, MCCRORY, AR 72101",35.267869,-91.204047
42584,13,HARRISON DIALYSIS,01Jan2020-31Dec2023,2.0,1,1409 GLADDEN,,HARRISON,AR,72601,Boone,existing,"1409 GLADDEN, HARRISON, AR 72601",36.24633,-93.12211
42585,13,DaVita Forrest City Dialysis,01Jan2020-31Dec2023,1.0,1,1501 N WASHINGTON ST,,FORREST CITY,AR,72335,Saint Francis,existing,"1501 N WASHINGTON ST, FORREST CITY, AR 72335",35.02416,-90.78837
42588,13,NEA BAPTIST CLINIC - HILLTOP,01Jan2020-31Dec2023,1.0,1,4909 E JOHNSON AVE,,JONESBORO,AR,72401,Craighead,existing,"4909 E JOHNSON AVE, JONESBORO, AR 72401",35.863719,-90.632356
42589,13,FMCNA - EAST LITTLE ROCK,01Jan2020-31Dec2023,2.0,1,5320 WEST 12TH ST,,LITTLE ROCK,AR,72204,Pulaski,existing,"5320 WEST 12TH ST, LITTLE ROCK, AR 72204",34.74139,-92.33295
42590,13,DaVita South Little Rock Dialysis,01Jan2020-31Dec2023,1.0,1,6115 BASELINE RD,STE 100,LITTLE ROCK,AR,72209,Pulaski,existing,"6115 BASELINE RD, LITTLE ROCK, AR 72209",34.668791,-92.346241
42592,13,DCI - LITTLE ROCK RENAL SERVICES LLC,01Jan2020-31Dec2023,3.0,1,1910 JOHN BARROW RD,,LITTLE ROCK,AR,72204,Pulaski,existing,"1910 JOHN BARROW RD, LITTLE ROCK, AR 72204",34.73625,-92.373201
42595,13,DaVita Pocahontas Dialysis,01Jan2020-31Dec2023,2.0,1,404 CAMP RD,,POCAHONTAS,AR,72455,Randolph,existing,"404 CAMP RD, POCAHONTAS, AR 72455",36.29017,-90.99317
42596,13,HIDDEN SPRINGS DIALYSIS CTR,01Jan2020-31Dec2023,3.0,1,"3000 NW ""A"" STREET",STE 2,BENTONVILLE,AR,72712,Benton,existing,"3000 NW ""A"" STREET, BENTONVILLE, AR 72712",36.408595,-94.215907
42597,13,DaVita Diamond State Dialysis,01Jan2020-31Dec2023,2.0,1,9022 LANDERS RD SUITE E,,NORTH LITTLE ROCK,AR,72117,Pulaski,existing,"9022 LANDERS RD SUITE E, NORTH LITTLE ROCK, AR 72117",34.834836,-92.168355
42598,13,DaVita College City Dialysis,01Jan2020-31Dec2023,1.0,1,2630 DONAGHEY AVE,,CONWAY,AR,72032,Faulkner,existing,"2630 DONAGHEY AVE, CONWAY, AR 72032",35.11153,-92.44906
42599,13,SPRINGDALE DIALYSIS CTR,01Jan2020-31Dec2023,3.0,1,2158 BUTTERFIELD COACH RD,,SPRINGDALE,AR,72764,Washington,existing,"2158 BUTTERFIELD COACH RD, SPRINGDALE, AR 72764",36.16497,-94.095205
42600,13,VAN BUREN DIALYSIS CENTER,01Jan2020-31Dec2023,1.0,1,256 NORTHRIDGE DRIVE E,,VAN BUREN,AR,72956,Crawford,new,"256 NORTHRIDGE DRIVE E, VAN BUREN, AR 72956",35.475436,-94.353303
42601,13,DaVita Twin Cities,01Jan2020-31Dec2023,3.0,1,2325 TRINITY BLVD.,,TEXARKANA,AR,71854,Miller,new,"2325 TRINITY BLVD., TEXARKANA, AR 71854",33.475043,-94.017892
42602,13,"Dialysis Clinic, Inc- North Little Rock",01Jan2020-31Dec2023,,260,2402 Main Street,,Little Rock,AR,72223,Pulaski,new,"2402 Main Street, Little Rock, AR 72223",34.777905,-92.26642
43501,13,ST BERNARDS-WYNNE,01Jan2020-31Dec2023,1.0,1,310 S FALLS BLVD,PO BOX 590,WYNNE,AR,72396,Cross,existing,"310 S FALLS BLVD, WYNNE, AR 72396",35.219668,-90.786521
43502,13,ST. BERNARDS MEDICAL CENTER - OSCEOLA DIALYSIS,01Jan2020-31Dec2023,1.0,1,1420 W KEISER AVE,,OSCEOLA,AR,72370,Mississippi,existing,"1420 W KEISER AVE, OSCEOLA, AR 72370",35.69844,-89.99188
52305,17,SANTA CLARA VALLEY RENAL CARE CENTER,01Jan2020-31Dec2023,3.0,1,2220 MOORPARK AVENUE,,SAN JOSE,CA,95128,Santa Clara,existing,"2220 MOORPARK AVENUE, SAN JOSE, CA 95128",37.31606,-121.93262
52311,18,St. Joseph Hospital Renal Center,01Jan2020-31Dec2023,3.0,1,Sr. Elizabeth Bldg. 1100 W. Stewart Drive,,Orange,CA,92868,Orange,existing,"Sr. Elizabeth Bldg. 1100 W. Stewart Drive, Orange, CA 92868",33.787888,-117.867306
52321,18,Childrens Hospital of Los Angeles,01Jan2020-31Dec2023,,260,"Division of Nephrology (Dialysis) 4650 Sunset Blvd., Box 40",,Los Angeles,CA,90027,Los Angeles,existing,"Division of Nephrology (Dialysis) 4650 Sunset Blvd., Box 40, Los Angeles, CA 90027",34.101209,-118.291794
52323,18,Kaiser Foundation Hospital Medical Ctr.- Sunset,01Jan2020-31Dec2023,3.0,1,"Dialysis Unit 4700 Sunset Blvd., 2nd Floor",,Los Angeles,CA,90027,Los Angeles,existing,"Dialysis Unit 4700 Sunset Blvd., 2nd Floor, Los Angeles, CA 90027",34.060037,-118.493502
52334,18,Arrowhead Regional Medical Center,01Jan2020-31Dec2023,5.0,1,400 N. Pepper Avenue,,Colton,CA,92324,San Bernardino,existing,"400 N. Pepper Avenue, Colton, CA 92324",34.074072,-117.351022
52380,18,Kaiser Foundation Hospital Medical Ctr.- Fontana,01Jan2020-31Dec2023,2.0,1,"Peritoneal Dialysis Unit, 9985 Sierra Avenue MOB-3",,Fontana,CA,92335,San Bernardino,existing,"Peritoneal Dialysis Unit, 9985 Sierra Avenue MOB-3, Fontana, CA 92335",34.072619,-117.433391
52381,18,Kaiser Foundation Hospital Medical Ctr.- Woodland Hills,01Jan2020-31Dec2023,4.0,1,"5601 De Soto Avenue, Area 247 Peritoneal Dialysis",,Woodland Hills,CA,91365,Los Angeles,existing,"5601 De Soto Avenue, Area 247 Peritoneal Dialysis, Woodland Hills, CA 91365",34.171166,-118.589978
52382,18,Kaiser Foundation Hospital Medical Ctr.- Riverside,01Jan2020-31Dec2023,4.0,1,"Peritoneal Dialysis Unit, 10800 Magnolia Avenue, Module 1X",,Riverside,CA,92505,Riverside,existing,"Peritoneal Dialysis Unit, 10800 Magnolia Avenue, Module 1X, Riverside, CA 92505",33.904738,-117.469218
52384,18,Kaiser Foundation Hospital Medical Ctr.- West Los Angeles,01Jan2020-31Dec2023,3.0,1,"Dialysis Unit 6041 Cadillac Avenue, Suite 442",,Los Angeles,CA,90034,Los Angeles,existing,"Dialysis Unit 6041 Cadillac Avenue, Suite 442, Los Angeles, CA 90034",34.03585,-118.36857
52389,18,Kaiser Foundation Hospital Medical Ctr.- Downey,01Jan2020-31Dec2023,4.0,1,"CAPD Department-Basement, 9333 E. Imperial Hwy",,Downey,CA,90242,Los Angeles,existing,"CAPD Department-Basement, 9333 E. Imperial Hwy, Downey, CA 90242",33.922933,-118.149593
52390,17,LUCILE PACKARD STANFORD PEDIATRIC DIALYSIS,01Jan2020-31Dec2023,1.0,1,725 WELCH ROAD PEDIATRIC DIALYSIS  RM 1229,,PALO ALTO,CA,94304,Santa Clara,existing,"725 WELCH ROAD PEDIATRIC DIALYSIS  RM 1229, PALO ALTO, CA 94304",37.436595,-122.17386
52392,17,KAISER PERMANENTE - SANTA CLARA,01Jan2020-31Dec2023,3.0,1,710 LAWRENCE EXPRESSWAY #460,,SANTA CLARA,CA,95051,Santa Clara,existing,"710 LAWRENCE EXPRESSWAY #460, SANTA CLARA, CA 95051",37.336202,-121.997485
52394,18,Kaiser Foundation Hospital Medical Ctr.- Anaheim,01Jan2020-31Dec2023,3.0,1,"Peritoneal Dialysis Unit, 3460 E. La Palma Avenue",,Anaheim,CA,92806,Orange,existing,"Peritoneal Dialysis Unit, 3460 E. La Palma Avenue, Anaheim, CA 92806",33.85315,-117.84412
52395,18,Childrens Hospital of San Diego,01Jan2020-31Dec2023,,260,"3020 Childrens Way, MC 5115",,San Diego,CA,92123,San Diego,existing,"3020 Childrens Way, MC 5115, San Diego, CA 92123",32.798017,-117.151257
52398,17,KAISER HOSPITAL ESRD PD UNIT,01Jan2020-31Dec2023,5.0,1,27303 SLEEPY HOLLOW,,HAYWARD,CA,94545,Alameda,existing,"27303 SLEEPY HOLLOW, HAYWARD, CA 94545",37.632204,-122.094439
52399,18,Kaiser Foundation Hospital Medical Ctr.- Baldwin Park,01Jan2020-31Dec2023,3.0,1,Peritoneal Dialysis Unit 1813 N Hacienda Blvd.,,LA PUENTE,CA,91744,Los Angeles,existing,"Peritoneal Dialysis Unit 1813 N Hacienda Blvd., LA PUENTE, CA 91744",34.038358,-117.94978
52403,17,KAISER PERMANENTE MARTINEZ,01Jan2020-31Dec2023,4.0,1,"200 MUIR ROAD, HACIENDA BUILDING, SECOND FLOOR",,MARTINEZ,CA,94553,Contra Costa,existing,"200 MUIR ROAD, HACIENDA BUILDING, SECOND FLOOR, MARTINEZ, CA 94553",37.99209,-122.13069
52404,18,Kaiser Foundation Hospital Medical Ctr.- Ontario,01Jan2020-31Dec2023,4.0,1,2295 South Vineyard Avenue,,Ontario,CA,91761,San Bernardino,existing,"2295 South Vineyard Avenue, Ontario, CA 91761",34.032215,-117.608906
52405,17,UC Davis Medical Center Pediatric,01Jan2020-31Dec2023,,260,2521 Stockton Blvd,Department of Pediatrics,SACRAMENTO,CA,95817,Sacramento,existing,"2521 Stockton Blvd, SACRAMENTO, CA 95817",38.552034,-121.455453
52406,18,Loma Linda University Children's Hospital Pediatric Chronic Dialysis,01Jan2020-31Dec2023,,260,"Childrens Hospital 11234 Anderson St., Rm. 4219",,Loma Linda,CA,92354,San Bernardino,existing,"Childrens Hospital 11234 Anderson St., Rm. 4219, Loma Linda, CA 92354",34.049544,-117.264128
52407,18,Kaiser Foundation Hospital Medical Ctr.- Moreno Valley,01Jan2020-31Dec2023,4.0,1,27200 Iris Avenue,,Moreno Valley,CA,92555,Riverside,new,"27200 Iris Avenue, Moreno Valley, CA 92555",33.896481,-117.187734
52502,18,DaVita Kidney Dialysis Care Unit,01Jan2020-31Dec2023,2.0,1,3600 E. Martin Luther King Jr. Blvd.,,Lynwood,CA,90262,Los Angeles,existing,"3600 E. Martin Luther King Jr. Blvd., Lynwood, CA 90262",33.929005,-118.20094
52503,18,DaVita Mainplace Dialysis Center,01Jan2020-31Dec2023,4.0,1,146 South Main Street,,Orange,CA,92868,Orange,existing,"146 South Main Street, Orange, CA 92868",33.786927,-117.867929
52505,18,DaVita Fullerton Dialysis,01Jan2020-31Dec2023,3.0,1,238 Orangefair Mall,,Fullerton,CA,92832,Orange,existing,"238 Orangefair Mall, Fullerton, CA 92832",33.857851,-117.920988
52513,18,SANTA BARBARA COMMUNITY DIALYSIS CENTER,01Jan2020-31Dec2023,5.0,1,222 Pesetas Lane,,Santa Barbara,CA,93110,Santa Barbara,existing,"222 Pesetas Lane, Santa Barbara, CA 93110",34.443554,-119.758009
52514,17,Satellite Healthcare Stevens Creek,01Jan2020-31Dec2023,4.0,1,4360-A Stevens Creek Blvd,,SAN JOSE,CA,95129,Santa Clara,existing,"4360-A Stevens Creek Blvd, SAN JOSE, CA 95129",37.314343,-121.976869
52515,18,USRC LOS ALAMITOS DIALYSIS,01Jan2020-31Dec2023,2.0,1,3810 Katella Avenue,,Los Alamitos,CA,90720,Orange,existing,"3810 Katella Avenue, Los Alamitos, CA 90720",33.802725,-118.066694
52521,18,DaVita Antelope Valley Dialysis,01Jan2020-31Dec2023,1.0,1,"1759 W. Avenue J, Suite 102",,Lancaster,CA,93534,Los Angeles,existing,"1759 W. Avenue J, Suite 102, Lancaster, CA 93534",34.690818,-118.163177
52522,18,"Mobile Dialysis Services, Inc. (Compton)",01Jan2020-31Dec2023,1.0,1,801 W. Compton Blvd.,,Compton,CA,90220,Los Angeles,existing,"801 W. Compton Blvd., Compton, CA 90220",33.896128,-118.237938
52523,18,BIO-MEDICAL LONG BEACH COMMUNITY HEMODIALYSIS UNIT,01Jan2020-31Dec2023,3.0,1,1525 Long Beach Blvd,,Long Beach,CA,90813,Los Angeles,existing,"1525 Long Beach Blvd, Long Beach, CA 90813",33.785951,-118.189994
52524,17,BMA SANTA ROSA,01Jan2020-31Dec2023,4.0,1,1020 SECOND STREET,,SANTA ROSA,CA,95404,Sonoma,existing,"1020 SECOND STREET, SANTA ROSA, CA 95404",38.442204,-122.7053
52525,18,DaVita Escondido Dialysis,01Jan2020-31Dec2023,4.0,1,203 E. Second Avenue,,Escondido,CA,92025,San Diego,existing,"203 E. Second Avenue, Escondido, CA 92025",33.121282,-117.079092
52526,17,Satellite Dialysis Greenbrae,01Jan2020-31Dec2023,3.0,1,565 SIR FRANCIS DRAKE BLVD.,,GREENBRAE,CA,94904,Marin,existing,"565 SIR FRANCIS DRAKE BLVD., GREENBRAE, CA 94904",37.947817,-122.527088
52528,17,DaVita Redding Dialysis Center,01Jan2020-31Dec2023,3.0,1,1876 PARK MARINA DRIVE,,REDDING,CA,96001,Shasta,existing,"1876 PARK MARINA DRIVE, REDDING, CA 96001",40.58463,-122.37645
52531,17,Satellite Healthcare Modesto,01Jan2020-31Dec2023,3.0,1,3500 COFFEE ROAD #21,,MODESTO,CA,95355,Stanislaus,existing,"3500 COFFEE ROAD #21, MODESTO, CA 95355",37.68939,-120.975511
52532,18,DaVita Riverside Dialysis Center,01Jan2020-31Dec2023,3.0,1,"4361 Latham Street, Suite 100",,Riverside,CA,92501,Riverside,existing,"4361 Latham Street, Suite 100, Riverside, CA 92501",34.002798,-117.373981
52534,17,RAI - EAST BAY - OAKLAND,01Jan2020-31Dec2023,3.0,1,"2628 INTERNATIONAL BLVD, STE 100",,OAKLAND,CA,94601,Alameda,existing,"2628 INTERNATIONAL BLVD, STE 100, OAKLAND, CA 94601",37.78123,-122.231753
52536,18,NATIONAL CITY DIALYSIS CENTER,01Jan2020-31Dec2023,3.0,1,303 W. 26th Street,,National City,CA,91950,San Diego,existing,"303 W. 26th Street, National City, CA 91950",32.659075,-117.104465
52538,18,DaVita Inglewood Dialysis,01Jan2020-31Dec2023,1.0,1,125 E. Arbor Vitae St,,Inglewood,CA,90301,Los Angeles,existing,"125 E. Arbor Vitae St, Inglewood, CA 90301",33.952929,-118.356192
52541,18,DaVita Palm Springs Dialysis,01Jan2020-31Dec2023,2.0,1,1061 N. Indian Canyon Drive,,Palm Springs,CA,92262,Riverside,existing,"1061 N. Indian Canyon Drive, Palm Springs, CA 92262",33.837152,-116.546414
52543,17,FMC EUREKA,01Jan2020-31Dec2023,5.0,1,2765 TIMBER RIDGE LANE,,EUREKA,CA,95503,Humboldt,existing,"2765 TIMBER RIDGE LANE, EUREKA, CA 95503",40.78026,-124.13703
52544,18,FMCNA OF CULVER CITY,01Jan2020-31Dec2023,4.0,1,9432 Venice Blvd.,,Culver City,CA,90230,Los Angeles,existing,"9432 Venice Blvd., Culver City, CA 90230",34.024831,-118.395456
52545,18,U.S. Renal Care Northridge Roscoe Dialysis,01Jan2020-31Dec2023,4.0,1,"18546 Roscoe Blvd., Suite 108",,Northridge,CA,91324,Los Angeles,existing,"18546 Roscoe Blvd., Suite 108, Northridge, CA 91324",34.220389,-118.537548
52546,17,DaVita Daly City Dialysis,01Jan2020-31Dec2023,4.0,1,1498 SOUTHGATE AVENUE,STE 101,DALY CITY,CA,94015,San Mateo,existing,"1498 SOUTHGATE AVENUE, DALY CITY, CA 94015",37.675234,-122.476025
52549,18,FRESENIUS MEDICAL CARE BURBANK,01Jan2020-31Dec2023,5.0,1,"2031 Alameda Avenue, Suite 202",,Burbank,CA,91506,Los Angeles,existing,"2031 Alameda Avenue, Suite 202, Burbank, CA 91506",34.159893,-118.323795
52550,18,Loma Linda University Kidney Center,01Jan2020-31Dec2023,,260,11375 Anderson Street,,Loma Linda,CA,92354,San Bernardino,existing,"11375 Anderson Street, Loma Linda, CA 92354",34.04684,-117.260575
52552,18,DaVita Upland Dialysis,01Jan2020-31Dec2023,2.0,1,600 N. 13th Avenue,,Upland,CA,91786,San Bernardino,existing,"600 N. 13th Avenue, Upland, CA 91786",34.101185,-117.63328
52553,17,DaVita Chico Dialysis Center,01Jan2020-31Dec2023,4.0,1,530 Cohasset Road,,CHICO,CA,95926,Butte,existing,"530 Cohasset Road, CHICO, CA 95926",39.751955,-121.849109
52554,18,DaVita Valley Dialysis Center,01Jan2020-31Dec2023,2.0,1,"6840 Sepulveda Blvd, Suite 101",,VAN NUYS,CA,91405,Los Angeles,existing,"6840 Sepulveda Blvd, Suite 101, VAN NUYS, CA 91405",34.195253,-118.465661
52555,17,Satellite Healthcare Capitola,01Jan2020-31Dec2023,5.0,1,3801 CLARES STREET,,CAPITOLA,CA,95010,Santa Cruz,existing,"3801 CLARES STREET, CAPITOLA, CA 95010",36.978312,-121.96767
52556,18,U.S. Renal Care Skypark Dialysis,01Jan2020-31Dec2023,4.0,1,3295 Skypark Drive,,Torrance,CA,90505,Los Angeles,existing,"3295 Skypark Drive, Torrance, CA 90505",33.809959,-118.345383
52560,17,DaVita San Pablo Dialysis,01Jan2020-31Dec2023,3.0,1,13352 SAN PABLO AVENUE,,SAN PABLO,CA,94806,Contra Costa,existing,"13352 SAN PABLO AVENUE, SAN PABLO, CA 94806",38.000156,-122.321592
52561,18,DaVita Victor Valley Dialysis,01Jan2020-31Dec2023,2.0,1,16049 Kamana Road,,Apple Valley,CA,92307,San Bernardino,existing,"16049 Kamana Road, Apple Valley, CA 92307",34.542631,-117.270923
52563,17,DaVita Yuba City Dialysis Center,01Jan2020-31Dec2023,3.0,1,1525 PLUMAS COURT SUITE A,,YUBA CITY,CA,95991,Sutter,existing,"1525 PLUMAS COURT SUITE A, YUBA CITY, CA 95991",39.153071,-121.617698
52564,18,DaVita Garfield Hemodialysis Center,01Jan2020-31Dec2023,3.0,1,118 Hilliard Avenue,,Monterey Park,CA,91754,Los Angeles,existing,"118 Hilliard Avenue, Monterey Park, CA 91754",34.067104,-118.123565
52565,17,DaVita Silverado Dialysis,01Jan2020-31Dec2023,5.0,1,1100 TRANCAS ST,STE 266 AND 267,NAPA,CA,94558,Napa,existing,"1100 TRANCAS ST, NAPA, CA 94558",38.323648,-122.298387
52567,17,DaVita Vallejo Dialysis,01Jan2020-31Dec2023,4.0,1,830 REDWOOD STREET,,VALLEJO,CA,94590,Solano,existing,"830 REDWOOD STREET, VALLEJO, CA 94590",38.123169,-122.254288
52568,17,DaVita Pleasanton Dialysis Center,01Jan2020-31Dec2023,5.0,1,5720 STONERIDGE MALL ROAD #160,,PLEASANTON,CA,94588,Alameda,existing,"5720 STONERIDGE MALL ROAD #160, PLEASANTON, CA 94588",37.691532,-121.93102
52569,17,DaVita South Sacramento Dialysis Center,01Jan2020-31Dec2023,3.0,1,8275 Bruceville Rd.,,Sacramento,CA,95823,Sacramento,existing,"8275 Bruceville Rd., Sacramento, CA 95823",38.456973,-121.417058
52571,17,DaVita Union City Dialysis Center,01Jan2020-31Dec2023,5.0,1,32930 ALVARADO-NILES ROAD #300,,UNION CITY,CA,94587,Alameda,existing,"32930 ALVARADO-NILES ROAD #300, UNION CITY, CA 94587",37.595273,-122.046688
52572,17,Satellite Healthcare East San Jose,01Jan2020-31Dec2023,5.0,1,2121 ALEXIAN DRIVE,,SAN JOSE,CA,95116,Santa Clara,existing,"2121 ALEXIAN DRIVE, SAN JOSE, CA 95116",37.360254,-121.847905
52574,18,DaVita Downey Dialysis Center,01Jan2020-31Dec2023,1.0,1,9041 Imperial Hwy.,,Downey,CA,90242,Los Angeles,existing,"9041 Imperial Hwy., Downey, CA 90242",33.917537,-118.136065
52576,18,FRESENIUS MEDICAL CARE BALBOA - KEARNY MESA,01Jan2020-31Dec2023,4.0,1,"7927 Ostrow Street, Suite A",,San Diego,CA,92111,San Diego,existing,"7927 Ostrow Street, Suite A, San Diego, CA 92111",32.812891,-117.154988
52578,17,RAI HARDING BLVD,01Jan2020-31Dec2023,4.0,1,1781 Santa Clara Drive,,ROSEVILLE,CA,95661,Placer,existing,"1781 Santa Clara Drive, ROSEVILLE, CA 95661",38.74712,-121.262519
52579,18,CONEJO VALLEY RENAL CENTER,01Jan2020-31Dec2023,4.0,1,"227 W. Janss Road, Suite 115",,Thousand Oaks,CA,91360,Ventura,existing,"227 W. Janss Road, Suite 115, Thousand Oaks, CA 91360",34.206805,-118.884316
52580,18,DaVita Covina Dialysis Center,01Jan2020-31Dec2023,3.0,1,1547 W. Garvey Avenue North,,West Covina,CA,91790,Los Angeles,existing,"1547 W. Garvey Avenue North, West Covina, CA 91790",34.072962,-117.939623
52581,18,U.S. Renal Care Gardena Dialysis - Redondo,01Jan2020-31Dec2023,3.0,1,"1045 W. Redondo Beach Blvd., Suite 105",,Gardena,CA,90247,Los Angeles,existing,"1045 W. Redondo Beach Blvd., Suite 105, Gardena, CA 90247",33.892846,-118.293037
52583,17,U.S. RENAL CARE MONTEREY DIALYSIS,01Jan2020-31Dec2023,5.0,1,2066 NORTH FREMONT BLVD,,MONTEREY,CA,93940,Monterey,existing,"2066 NORTH FREMONT BLVD, MONTEREY, CA 93940",36.599824,-121.893466
52584,17,DaVita Merced Dialysis,01Jan2020-31Dec2023,4.0,1,"3393 G STREET, SUITE A",,MERCED,CA,95340,Merced,existing,"3393 G STREET, SUITE A, MERCED, CA 95340",37.326147,-120.46997
52585,18,U.S. Renal Care Van Nuys Dialysis,01Jan2020-31Dec2023,2.0,1,"14624 Sherman Way, Suite 106",,Van Nuys,CA,91405,Los Angeles,existing,"14624 Sherman Way, Suite 106, Van Nuys, CA 91405",34.200383,-118.451677
52589,18,FMC-University Dialysis Center of Orange,01Jan2020-31Dec2023,3.0,1,1809 W. Chapman Avenue,,Orange,CA,92868,Orange,existing,"1809 W. Chapman Avenue, Orange, CA 92868",33.78828,-117.872149
52590,18,RAI - COMPTON - LOS ANGELES,01Jan2020-31Dec2023,2.0,1,11859 Compton Avenue,,Los Angeles,CA,90059,Los Angeles,existing,"11859 Compton Avenue, Los Angeles, CA 90059",33.924845,-118.246568
52591,18,DaVita Pomona Dialysis,01Jan2020-31Dec2023,3.0,1,2111 N. Garey Avenue,,Pomona,CA,91767,Los Angeles,existing,"2111 N. Garey Avenue, Pomona, CA 91767",34.08627,-117.75147
52597,18,DaVita Mission Viejo Dialysis,01Jan2020-31Dec2023,4.0,1,27640 Marguerite Parkway,,Mission Viejo,CA,92692,Orange,existing,"27640 Marguerite Parkway, Mission Viejo, CA 92692",33.562328,-117.657316
52600,17,Satellite Healthcare South San Jose,01Jan2020-31Dec2023,5.0,1,393 BLOSSOM HILL ROAD SUITE 110,,SAN JOSE,CA,95123,Santa Clara,existing,"393 BLOSSOM HILL ROAD SUITE 110, SAN JOSE, CA 95123",37.251925,-121.82699
52601,17,DaVita Lakeport Dialysis Center,01Jan2020-31Dec2023,4.0,1,244 PECKHAM COURT,,LAKEPORT,CA,95453,Lake,existing,"244 PECKHAM COURT, LAKEPORT, CA 95453",39.026045,-122.917242
52602,17,DaVita Salinas Valley Dialysis Center,01Jan2020-31Dec2023,4.0,1,"955 Blanco Circle, Ste. #C",,Salinas,CA,93901,Monterey,existing,"955 Blanco Circle, Ste. #C, Salinas, CA 93901",36.655923,-121.637551
52604,17,DaVita Manzanita Dialysis Center,01Jan2020-31Dec2023,3.0,1,4005 MANZANITA AVENUE,STE 17,CARMICHAEL,CA,95608,Sacramento,existing,"4005 MANZANITA AVENUE, CARMICHAEL, CA 95608",38.638558,-121.329599
52606,18,"Santa Barbara Artificial Kidney Center, LLC",01Jan2020-31Dec2023,4.0,1,1704 State Street,,Santa Barbara,CA,93101,Santa Barbara,existing,"1704 State Street, Santa Barbara, CA 93101",34.428642,-119.711015
52608,17,DaVita Fresno Dialysis,01Jan2020-31Dec2023,3.0,1,4308 WEST SHAW AVENUE,STE 101,FRESNO,CA,93722,Fresno,existing,"4308 WEST SHAW AVENUE, FRESNO, CA 93722",36.809161,-119.869309
52609,17,Satellite Healthcare Sonora,01Jan2020-31Dec2023,3.0,1,18330 HWY 108,,JAMESTOWN,CA,95327,Tuolumne,existing,"18330 HWY 108, JAMESTOWN, CA 95327",37.916059,-120.456616
52610,17,RAI PIEDMONT,01Jan2020-31Dec2023,3.0,1,2710 TELEGRAPH AVENUE Suite #100,,OAKLAND,CA,94612,Alameda,existing,"2710 TELEGRAPH AVENUE Suite #100, OAKLAND, CA 94612",37.816491,-122.267379
52612,17,BMA OF CENTRAL VALLEY RURAL DIALYSIS,01Jan2020-31Dec2023,4.0,1,810 E. Manning Ave,,REEDLEY,CA,93654,Fresno,existing,"810 E. Manning Ave, REEDLEY, CA 93654",36.60504,-119.44091
52613,18,DaVita Eaton Canyon Dialysis,01Jan2020-31Dec2023,3.0,1,2551 E. Washington Blvd.,,Pasadena,CA,91107,Los Angeles,existing,"2551 E. Washington Blvd., Pasadena, CA 91107",34.169537,-118.097476
52614,17,DaVita Auburn Dialysis,01Jan2020-31Dec2023,5.0,1,3126 PROFESSIONAL DRIVE #100,,AUBURN,CA,95603,Placer,existing,"3126 PROFESSIONAL DRIVE #100, AUBURN, CA 95603",38.940902,-121.10032
52615,17,DaVita Napa Dialysis Center,01Jan2020-31Dec2023,3.0,1,3900-C Bel Aire Plaza #C,,NAPA,CA,94558,Napa,existing,"3900-C Bel Aire Plaza #C, NAPA, CA 94558",38.323099,-122.307399
52617,18,RAI - GARDEN GROVE BLVD - GARDEN GROVE,01Jan2020-31Dec2023,3.0,1,"12555 Garden Grove Blvd., Suite 100",,Garden Grove,CA,92843,Orange,existing,"12555 Garden Grove Blvd., Suite 100, Garden Grove, CA 92843",33.774969,-117.913797
52618,17,DaVita Fairfield Dialysis Center,01Jan2020-31Dec2023,5.0,1,4660 CENTRAL WAY,,FAIRFIELD,CA,94534,Solano,existing,"4660 CENTRAL WAY, FAIRFIELD, CA 94534",38.21965,-122.13169
52620,18,DaVita Hemet Dialysis Center,01Jan2020-31Dec2023,2.0,1,3050 W. Florida Avenue,,Hemet,CA,92545,Riverside,existing,"3050 W. Florida Avenue, Hemet, CA 92545",33.74775,-117.004037
52621,18,DaVita Brea Dialysis Center,01Jan2020-31Dec2023,3.0,1,"595 Tamarack Avenue, Suite A",,Brea,CA,92821,Orange,existing,"595 Tamarack Avenue, Suite A, Brea, CA 92821",33.92808,-117.900604
52622,18,DaVita East LA Plaza Dialysis,01Jan2020-31Dec2023,1.0,1,"1700 E Cesar E. Chavez Ave., Suite L-100",,Los Angeles,CA,90033,Los Angeles,existing,"1700 E Cesar E. Chavez Ave., Suite L-100, Los Angeles, CA 90033",34.050818,-118.217383
52624,17,FRESENIUS KIDNEY CARE OF PETALUMA,01Jan2020-31Dec2023,5.0,1,"715 SOUTH POINT BLVD., SUITE A",,PETALUMA,CA,94954,Sonoma,existing,"715 SOUTH POINT BLVD., SUITE A, PETALUMA, CA 94954",38.275589,-122.669178
52627,18,DaVita La Palma Dialysis,01Jan2020-31Dec2023,2.0,1,7880 Valley View St.,,Buena Park,CA,90620,Orange,existing,"7880 Valley View St., Buena Park, CA 90620",33.847995,-118.02714
52628,18,DaVita Hanford Dialysis,01Jan2020-31Dec2023,2.0,1,402 W. Eighth Street,,Hanford,CA,93230,Kings,existing,"402 W. Eighth Street, Hanford, CA 93230",36.3271,-119.65098
52629,17,Satellite Healthcare Watsonville,01Jan2020-31Dec2023,5.0,1,5 Nielson Street,,WATSONVILLE,CA,95076,Santa Cruz,existing,"5 Nielson Street, WATSONVILLE, CA 95076",36.928,-121.79121
52630,17,Satellite Healthcare Santa Rosa,01Jan2020-31Dec2023,3.0,1,2301 CIRCADIAN WAY #C,,SANTA ROSA,CA,95407,Sonoma,existing,"2301 CIRCADIAN WAY #C, SANTA ROSA, CA 95407",38.422015,-122.753547
52631,18,DaVita Wilshire Dialysis Center,01Jan2020-31Dec2023,1.0,1,1212 Wilshire Blvd.,,Los Angeles,CA,90017,Los Angeles,existing,"1212 Wilshire Blvd., Los Angeles, CA 90017",34.053028,-118.265441
52633,18,MISSION HILLS DIALYSIS LLC,01Jan2020-31Dec2023,1.0,1,"11550 Indian Hills Road, Suite 100",,Mission Hills,CA,91345,Los Angeles,existing,"11550 Indian Hills Road, Suite 100, Mission Hills, CA 91345",34.280224,-118.458358
52634,18,RAI - CENTINELA - INGLEWOOD,01Jan2020-31Dec2023,3.0,1,1416 Centinela Avenue,,Inglewood,CA,90302,Los Angeles,existing,"1416 Centinela Avenue, Inglewood, CA 90302",33.977146,-118.364935
52635,18,DaVita Bakersfield Brimhall Dialysis,01Jan2020-31Dec2023,3.0,1,"8501 Brimhall Road, Bldg. 500",,Bakersfield,CA,93312,Kern,existing,"8501 Brimhall Road, Bldg. 500, Bakersfield, CA 93312",35.367273,-119.094881
52637,18,DaVita Burbank Dialysis,01Jan2020-31Dec2023,3.0,1,1211 N. San Fernando Blvd.,,Burbank,CA,91504,Los Angeles,existing,"1211 N. San Fernando Blvd., Burbank, CA 91504",34.188645,-118.320084
52638,18,DaVita Simi Valley Dialysis,01Jan2020-31Dec2023,2.0,1,970 Enchanted Way,,Simi Valley,CA,93065,Ventura,existing,"970 Enchanted Way, Simi Valley, CA 93065",34.283547,-118.784583
52641,18,DaVita Huntington Beach Dialysis,01Jan2020-31Dec2023,4.0,1,"16892 Bolsa Chica Street, Suite 100",,Huntington Beach,CA,92649,Orange,existing,"16892 Bolsa Chica Street, Suite 100, Huntington Beach, CA 92649",33.716605,-118.040473
52643,18,DaVita Tower Dialysis,01Jan2020-31Dec2023,3.0,1,"8635 W. Third Street, Suite 560W",,Los Angeles,CA,90048,Los Angeles,existing,"8635 W. Third Street, Suite 560W, Los Angeles, CA 90048",34.073929,-118.380918
52644,18,FMC-Alhambra,01Jan2020-31Dec2023,3.0,1,2300 W. Valley Blvd.,,Alhambra,CA,91803,Los Angeles,existing,"2300 W. Valley Blvd., Alhambra, CA 91803",34.076669,-118.149016
52647,17,Satellite Healthcare Turlock,01Jan2020-31Dec2023,3.0,1,1729 NORTH OLIVE #9,,TURLOCK,CA,95382,Stanislaus,existing,"1729 NORTH OLIVE #9, TURLOCK, CA 95382",37.50881,-120.840195
52648,18,DaVita San Juan Capistrano South Dialysis,01Jan2020-31Dec2023,4.0,1,"31736 Rancho Viejo Road, Suite B",,SAN JUAN CAPISTRANO,CA,92675,Orange,existing,"31736 Rancho Viejo Road, Suite B, SAN JUAN CAPISTRANO, CA 92675",33.502608,-117.652473
52652,18,DaVita Paramount Dialysis Center,01Jan2020-31Dec2023,3.0,1,15625 Lakewood Blvd.,,Paramount,CA,90723,Los Angeles,existing,"15625 Lakewood Blvd., Paramount, CA 90723",33.891651,-118.142917
52653,18,CHULA VISTA DIALYSIS CENTER - SOUTH,01Jan2020-31Dec2023,5.0,1,"2252 Verus Street, Suite D",,San Diego,CA,92154,San Diego,existing,"2252 Verus Street, Suite D, San Diego, CA 92154",32.594516,-117.086597
52654,18,RAI - NORTH GAREY - POMONA,01Jan2020-31Dec2023,4.0,1,150 E. Arrow Highway,,Pomona,CA,91767,Los Angeles,existing,"150 E. Arrow Highway, Pomona, CA 91767",34.089731,-117.748323
52656,18,DIALYSIS CENTERS OF VENTURA COUNTY,01Jan2020-31Dec2023,4.0,1,"4567 Telephone Road, Suite 101",,Ventura,CA,93003,Ventura,existing,"4567 Telephone Road, Suite 101, Ventura, CA 93003",34.255991,-119.235543
52657,18,RAI - CORPORATE WAY - PALM DESERT,01Jan2020-31Dec2023,2.0,1,41-501 Corporate Way,,Palm Desert,CA,92260,Riverside,existing,"41-501 Corporate Way, Palm Desert, CA 92260",33.74679,-116.362777
52658,18,Kidney Institute of the Desert,01Jan2020-31Dec2023,4.0,1,"81715 Doctor Carreon Blvd., Suite B-2",,Indio,CA,92201,Riverside,existing,"81715 Doctor Carreon Blvd., Suite B-2, Indio, CA 92201",33.707045,-116.238575
52661,18,DaVita Corona Dialysis Center,01Jan2020-31Dec2023,4.0,1,"2057 Compton Avenue, #101",,Corona,CA,92881,Riverside,existing,"2057 Compton Avenue, #101, Corona, CA 92881",33.849593,-117.535921
52663,17,DaVita Antelope Dialysis Center,01Jan2020-31Dec2023,2.0,1,6406 TUPELO DRIVE STE-A,,CITRUS HEIGHTS,CA,95621,Sacramento,existing,"6406 TUPELO DRIVE STE-A, CITRUS HEIGHTS, CA 95621",38.704755,-121.314153
52665,18,DaVita Santa Monica Dialysis,01Jan2020-31Dec2023,3.0,1,"1260 15th Street, Suite 102",,Santa Monica,CA,90404,Los Angeles,existing,"1260 15th Street, Suite 102, Santa Monica, CA 90404",34.026164,-118.486895
52666,18,DaVita Tulare Dialysis,01Jan2020-31Dec2023,3.0,1,545 E. Tulare Avenue,,Tulare,CA,93274,Tulare,existing,"545 E. Tulare Avenue, Tulare, CA 93274",36.208431,-119.341103
52668,18,CAMARILLO DIALYSIS CENTER,01Jan2020-31Dec2023,3.0,1,"3801 Las Posas Road, Suite 103",,Camarillo,CA,93010,Ventura,existing,"3801 Las Posas Road, Suite 103, Camarillo, CA 93010",34.24188,-119.019456
52670,18,DaVita Imperial Dialysis,01Jan2020-31Dec2023,2.0,1,2738 W. Imperial Highway,,Inglewood,CA,90303,Los Angeles,existing,"2738 W. Imperial Highway, Inglewood, CA 90303",33.930715,-118.323552
52671,18,DaVita United Dialysis Center,01Jan2020-31Dec2023,3.0,1,3111 Long Beach Blvd.,,Long Beach,CA,90807,Los Angeles,existing,"3111 Long Beach Blvd., Long Beach, CA 90807",33.813845,-118.189707
52673,18,DaVita Bakersfield Dialysis Center,01Jan2020-31Dec2023,2.0,1,5143 Office Park Drive,,Bakersfield,CA,93309,Kern,existing,"5143 Office Park Drive, Bakersfield, CA 93309",35.365949,-119.059038
52674,18,DaVita Delano Dialysis,01Jan2020-31Dec2023,2.0,1,405 Dover Parkway,,Delano,CA,93215,Kern,existing,"405 Dover Parkway, Delano, CA 93215",35.755569,-119.250017
52675,17,DaVita East Bay Peritoneal Dialysis Center,01Jan2020-31Dec2023,5.0,1,13939 E 14TH STREET STE 110,,SAN LEANDRO,CA,94578,Alameda,existing,"13939 E 14TH STREET STE 110, SAN LEANDRO, CA 94578",37.713035,-122.141629
52676,17,DCI UNIVERSITY DIALYSIS CLINIC,01Jan2020-31Dec2023,3.0,1,1771 STOCKTON BLVD,,SACRAMENTO,CA,95816,Sacramento,existing,"1771 STOCKTON BLVD, SACRAMENTO, CA 95816",38.563884,-121.465609
52677,17,SAN JOAQUIN VALLEY DIALYSIS,01Jan2020-31Dec2023,4.0,1,3636 NORTH FIRST #144,,FRESNO,CA,93726,Fresno,existing,"3636 NORTH FIRST #144, FRESNO, CA 93726",36.783198,-119.771579
52678,18,GATEWAY DIALYSIS CENTER - EAST,01Jan2020-31Dec2023,4.0,1,"720 Gateway Center Drive, Suite B",,San Diego,CA,92102,San Diego,existing,"720 Gateway Center Drive, Suite B, San Diego, CA 92102",32.713671,-117.114788
52682,18,DaVita Fontana Dialysis,01Jan2020-31Dec2023,3.0,1,17590 Foothill Blvd.,,Fontana,CA,92335,San Bernardino,existing,"17590 Foothill Blvd., Fontana, CA 92335",34.107222,-117.420806
52683,18,RAI - EAST OLYMPIC - LOS ANGELES,01Jan2020-31Dec2023,1.0,1,5714 East Olympic Blvd.,,Los Angeles,CA,90022,Los Angeles,existing,"5714 East Olympic Blvd., Los Angeles, CA 90022",34.01368,-118.147834
52684,18,Peritoneal Dialysis Center of America-San Gabriel PC,01Jan2020-31Dec2023,3.0,1,"809 S. Atlantic Blvd., Suite 103",,Monterey Park,CA,91754,Los Angeles,existing,"809 S. Atlantic Blvd., Suite 103, Monterey Park, CA 91754",34.052574,-118.137445
52685,17,DaVita Hayward Dialysis Center,01Jan2020-31Dec2023,5.0,1,21615 HESPERIAN BOULEVARD SUITE F,,HAYWARD,CA,94541,Alameda,existing,"21615 HESPERIAN BOULEVARD SUITE F, HAYWARD, CA 94541",37.66082,-122.115894
52686,18,FRESENIUS MEDICAL CARE BALBOA LA MESA,01Jan2020-31Dec2023,3.0,1,5995 Severin Drive,,La Mesa,CA,91942,San Diego,existing,"5995 Severin Drive, La Mesa, CA 91942",32.787041,-116.998486
52687,18,BMA CARSON COMMUNITY DIALYSIS,01Jan2020-31Dec2023,4.0,1,"20710 S. Leapwood Avenue, Suite F",,Carson,CA,90746,Los Angeles,existing,"20710 S. Leapwood Avenue, Suite F, Carson, CA 90746",33.851313,-118.260301
52689,17,DaVita Walnut Creek Dialysis Center,01Jan2020-31Dec2023,5.0,1,404 NORTH WIGET LANE,,WALNUT CREEK,CA,94598,Contra Costa,existing,"404 NORTH WIGET LANE, WALNUT CREEK, CA 94598",37.929983,-122.029378
52690,18,EL CENTRO DESERT DIALYSIS CENTER,01Jan2020-31Dec2023,5.0,1,110 S. Fifth Street,,El Centro,CA,92243,Imperial,existing,"110 S. Fifth Street, El Centro, CA 92243",32.792386,-115.5549
52691,17,DaVita Cameron Park Dialysis,01Jan2020-31Dec2023,4.0,1,3311 COACH LN STE C,,CAMERON PARK,CA,95682,El Dorado,existing,"3311 COACH LN STE C, CAMERON PARK, CA 95682",38.6584,-120.97365
52694,17,FRESENIUS MEDICAL CARE LOS GATOS,01Jan2020-31Dec2023,5.0,1,14651 SOUTH BASCOM SUITE 100,,LOS GATOS,CA,95032,Santa Clara,existing,"14651 SOUTH BASCOM SUITE 100, LOS GATOS, CA 95032",37.255885,-121.950928
52695,18,DaVita Los Angeles Dialysis Center,01Jan2020-31Dec2023,2.0,1,3901 S. Western Avenue,,Los Angeles,CA,90062,Los Angeles,existing,"3901 S. Western Avenue, Los Angeles, CA 90062",34.014382,-118.309212
52696,18,DaVita Visalia Dialysis,01Jan2020-31Dec2023,3.0,1,5429 W. Cypress Avenue,,Visalia,CA,93277,Tulare,existing,"5429 W. Cypress Avenue, Visalia, CA 93277",36.324478,-119.351746
52699,18,High Desert Hemodialysis,01Jan2020-31Dec2023,2.0,1,"1007 W. Avenue M-14, Suite B",,Palmdale,CA,93551,Los Angeles,existing,"1007 W. Avenue M-14, Suite B, Palmdale, CA 93551",34.63351,-118.14819
52700,18,DaVita Monterey Park Dialysis Center,01Jan2020-31Dec2023,2.0,1,883 S Atlantic Blvd Unit H,,Monterey Park,CA,91754,Los Angeles,existing,"883 S Atlantic Blvd Unit H, Monterey Park, CA 91754",34.05075,-118.13854
52701,18,U.S. Renal Care Earl Street Dialysis,01Jan2020-31Dec2023,3.0,1,"20911 Earl Street, Suite 160",,Torrance,CA,90503,Los Angeles,existing,"20911 Earl Street, Suite 160, Torrance, CA 90503",33.840436,-118.358579
52703,17,RAI - WEST MARCH - STOCKTON,01Jan2020-31Dec2023,3.0,1,3115 WEST MARCH LANE SUITE A,,STOCKTON,CA,95219,San Joaquin,existing,"3115 WEST MARCH LANE SUITE A, STOCKTON, CA 95219",37.985034,-121.350478
